"","lon","lat","city_ref","anomalie","class_anomalie","class_nova"
"1",-73.436212623797,-7.50637570685889,"Mâncio Lima",-0.0623032849843393,"Removal","< 0"
"2",-73.2237996935056,-7.84388048443167,"Rodrigues Alves",-0.0131832707810072,"Removal","< 0"
"3",-72.8445879498086,-7.22978092952451,"Guajará",-0.0599165615021987,"Removal","< 0"
"4",-72.769501,-7.59991,"Cruzeiro Do Sul",0.00573900178584466,"Emission","< 1"
"5",-72.7553304218677,-7.9725286397621,"Cruzeiro Do Sul",-0.0164833393489688,"Removal","< 0"
"6",-72.7349135140501,-8.49244909146235,"Porto Walter",0.103888812015719,"Emission","< 1"
"7",-72.5593640255015,-9.09688649135233,"Marechal Thaumaturgo",0.0987488357154704,"Emission","< 1"
"8",-71.9058207693425,-9.24226548573283,"Jordão",0.0264007424976573,"Emission","< 1"
"9",-71.7407247801727,-5.71061130978623,"Atalaia Do Norte",0.352452723229015,"Emission","< 1"
"10",-71.4449915259482,-8.23946595661596,"Tarauacá",0.242324489388022,"Emission","< 1"
"11",-71.4128668677446,-7.18051157923575,"Ipixuna",-0.166911556374653,"Removal","< 0"
"12",-70.7444757427875,-8.92429348856395,"Feijó",0.0900000802027554,"Emission","< 1"
"13",-70.3964080617679,-9.41234936079402,"Santa Rosa Do Purus",0.0394313470090005,"Emission","< 1"
"14",-70.2768377851722,-5.42842836610177,"Benjamin Constant",-0.0496509401376636,"Removal","< 0"
"15",-70.218248152793,-7.02199804721698,"Eirunepé",0.0384500668827423,"Emission","< 1"
"16",-70.0550858891606,-7.57330419046941,"Envira",-0.0398292497856158,"Removal","< 0"
"17",-70.0061515758409,-10.780268510515,"Assis Brasil",0.0244815673081598,"Emission","< 1"
"18",-69.9428,-4.2339,"Tabatinga",-0.000255794591615703,"Removal","< 0"
"19",-69.935799,-4.25567,"Tabatinga",0.00436231110997171,"Emission","< 1"
"20",-69.8797988891602,-6.63953018188477,"Eirunepé",-0.000237992099015955,"Removal","< 0"
"21",-69.8557015662941,-9.38328008246644,"Manoel Urbano",0.178324899999857,"Emission","< 1"
"22",-69.6756879652419,-4.0288289219263,"Tabatinga",0.032492772426925,"Emission","< 1"
"23",-69.4511185863739,-4.50143648494653,"São Paulo De Olivença",0.033707902613973,"Emission","< 1"
"24",-69.3830075269298,-9.77220173684327,"Sena Madureira",0.0191578291197296,"Emission","< 1"
"25",-69.2065513599838,-10.7495372422272,"Brasiléia",-0.025282589471001,"Removal","< 0"
"26",-69.0872585282825,-3.05237276981368,"Santo Antônio Do Içá",-0.0951437672797475,"Removal","< 0"
"27",-68.6182824581683,-10.8891209528503,"Epitaciolândia",-0.00663328401597839,"Removal","< 0"
"28",-68.5044408136186,-10.5755718755675,"Xapuri",-0.0387293742615709,"Removal","< 0"
"29",-68.4063044801014,-4.71529084220981,"Jutaí",-0.192746693196176,"Removal","< 0"
"30",-68.3710619510093,-10.0661349491742,"Rio Branco",-0.028051758917979,"Removal","< 0"
"31",-68.3166919207107,-1.69970336927077,"Japurá",-0.0318079618604507,"Removal","< 0"
"32",-68.2864994699081,-3.41843342830083,"Amaturá",0.0514759462980535,"Emission","< 1"
"33",-68.1971409475066,-7.75780543969732,"Pauini",-0.195483008750532,"Removal","< 0"
"34",-68.1737108690377,-9.61409487407495,"Bujari",0.0539661955468095,"Emission","< 1"
"35",-68.1128412174588,-6.68282224110506,"Itamarati",0.0185891062886208,"Emission","< 1"
"36",-68.0476335877583,-8.77315466766972,"Boca Do Acre",-0.265653646722568,"Removal","< 0"
"37",-68.0017764798898,0.365586186993581,"São Gabriel Da Cachoeira",-0.675721863460006,"Removal","< 0"
"38",-67.893984,-9.869031,"Rio Branco",0.0260042896304326,"Emission","< 1"
"39",-67.8364698182792,-10.4734240655898,"Capixaba",-0.00728767518793578,"Removal","< 0"
"40",-67.83,-9.947,"Rio Branco",0.000220935324496394,"Emission","< 1"
"41",-67.8260494656625,-2.69180916604253,"Japurá",0.057652877261238,"Emission","< 1"
"42",-67.791,-9.931,"Rio Branco",0.00690719833471913,"Emission","< 1"
"43",-67.786,-9.964,"Rio Branco",0.00310238524076865,"Emission","< 1"
"44",-67.768,-10.034,"Rio Branco",0.00143357233350755,"Emission","< 1"
"45",-67.6984871061968,-9.62947370630415,"Porto Acre",0.0090467593397543,"Emission","< 1"
"46",-67.4275936314969,-9.99722089624224,"Senador Guiomard",-0.00419175313415745,"Removal","< 0"
"47",-67.3401303333523,-10.2485083732382,"Plácido De Castro",-0.0296405304652487,"Removal","< 0"
"48",-67.3374716381014,-5.1185164885162,"Carauari",0.0318012936127294,"Emission","< 1"
"49",-66.9855,-0.14835,"São Gabriel Da Cachoeira",-0.000232498732490949,"Removal","< 0"
"50",-66.9501921701075,-9.93357329811221,"Acrelândia",-0.0250956549524984,"Removal","< 0"
"51",-66.897552,-4.871473,"Carauari",-0.000240603353644412,"Removal","< 0"
"52",-66.3579242156695,-2.49098554027089,"Fonte Boa",0.367114174585594,"Emission","< 1"
"53",-66.3077991877054,-3.5244642076617,"Juruá",0.249423373694555,"Emission","< 1"
"54",-65.8116628613948,-8.37560148087939,"Lábrea",0.385246874343112,"Emission","< 1"
"55",-65.5315360442968,-4.47011066732884,"Tefé",0.0465693144148374,"Emission","< 1"
"56",-65.5213054447365,-0.318343806838944,"Santa Isabel Do Rio Negro",-0.459932153863779,"Removal","< 0"
"57",-65.4107896638204,-3.1656558635417,"Uarini",0.14156667648362,"Emission","< 1"
"58",-65.3244466984137,-3.69468474667569,"Alvarães",0.0516519799587494,"Emission","< 1"
"59",-65.0395512290932,-2.42682864332425,"Maraã",0.203520134072543,"Emission","< 1"
"60",-64.9557964235078,-6.09370196685332,"Tapauá",0.544565849313821,"Emission","< 1"
"61",-64.769501,-7.27897,"Lábrea",-0.000256254534254065,"Removal","< 0"
"62",-64.724098,-3.38294,"Tefé",0.00111481001860982,"Emission","< 1"
"63",-64.7033,-3.3458,"Tefé",-0.000218904301593806,"Removal","< 0"
"64",-64.6265369340764,-10.3827186401927,"Nova Mamoré",0.0514663806806438,"Emission","< 1"
"65",-64.6154,-4.1728,"Coari",-0.000106400070925659,"Removal","< 0"
"66",-64.5342086540273,-11.3044952928918,"Guajará-Mirim",-0.312420188101036,"Removal","< 0"
"67",-64.3077392911091,-9.15396949952705,"Porto Velho",0.437793344911882,"Emission","< 1"
"68",-64.1253106463893,-4.43635141737092,"Coari",0.576209073579683,"Emission","< 1"
"69",-64.0619034098736,-7.30075809991637,"Canutama",0.0577856697953937,"Emission","< 1"
"70",-64.0583379578841,-12.1469701531867,"Costa Marques",-0.109360727755736,"Removal","< 0"
"71",-63.9411627315935,-10.0521152951453,"Buritis",-0.0152068552900353,"Removal","< 0"
"72",-63.90242,-8.707854,"Porto Velho",0.0618863344220995,"Emission","< 1"
"73",-63.7997164659949,-10.4849339751875,"Campo Novo De Rondônia",0.0196284881865303,"Emission","< 1"
"74",-63.468165,-8.740355,"Candeias Do Jamari",0.0223497591608573,"Emission","< 1"
"75",-63.4347637971427,-0.465034755640813,"Barcelos",-1.2225428278632,"Removal","< -1"
"76",-63.3943222506631,-9.64931030381078,"Alto Paraíso",0.0511368623800079,"Emission","< 1"
"77",-63.3723926081637,-10.2108324960752,"Monte Negro",-0.0537259145491756,"Removal","< 0"
"78",-63.3256206264706,-8.8869938892035,"Candeias Do Jamari",0.00421551512833536,"Emission","< 1"
"79",-63.2306990655302,-11.8072176455011,"Seringueiras",0.0696558123295482,"Emission","< 1"
"80",-63.184012138019,-10.7480293450291,"Governador Jorge Teixeira",0.0658083286523578,"Emission","< 1"
"81",-63.14,-4.0833,"Coari",-4.40093617402629e-05,"Removal","< 0"
"82",-63.132599,-4.13406,"Coari",-0.0002619457460309,"Removal","< 0"
"83",-63.1221051726145,-12.3685607594049,"São Francisco Do Guaporé",-0.183011645004734,"Removal","< 0"
"84",-63.0449412856846,-9.17020967814704,"Itapuã Do Oeste",-0.0543748254708575,"Removal","< 0"
"85",-62.9872612863041,-10.3316028105156,"Cacaulândia",0.00882439850095467,"Emission","< 1"
"86",-62.9832482504681,-11.6149688629242,"Seringueiras",0.0417497906334348,"Emission","< 1"
"87",-62.9733150244066,-3.2889719656745,"Codajás",0.338271944624508,"Emission","< 1"
"88",-62.9572552229938,-9.9518900066049,"Ariquemes",-0.035841338027078,"Removal","< 0"
"89",-62.918603,-0.981191,"Barcelos",-0.000261516769772586,"Removal","< 0"
"90",-62.8479793319319,-11.0768378400064,"Mirante Da Serra",9.40121492764151e-05,"Emission","< 1"
"91",-62.7900744846809,-9.64521156279041,"Rio Crespo",-0.00447975097517523,"Removal","< 0"
"92",-62.7599859198288,3.07555893733847,"Alto Alegre",-0.598515094530281,"Removal","< 0"
"93",-62.5848655794467,-10.5924480639812,"Jaru",0.00254756078142312,"Emission","< 1"
"94",-62.5653358423403,-9.17109363334403,"Cujubim",0.104091426305162,"Emission","< 1"
"95",-62.5449922370376,-11.3114209655766,"Alvorada D'oeste",0.0296665798714145,"Emission","< 1"
"96",-62.5323571382092,-10.8893442850586,"Nova União",-0.00732681678861291,"Removal","< 0"
"97",-62.4864352937305,-7.36121764048094,"Humaitá",0.0248818385326523,"Emission","< 1"
"98",-62.4362677327624,3.73190083214486,"Amajari",-0.412105470741966,"Removal","< 0"
"99",-62.4315660341966,2.18710190445277,"Mucajaí",-0.382374214121699,"Removal","< 0"
"100",-62.4244103378031,-11.103952818163,"Urupá",0.00233170091774073,"Emission","< 1"
"101",-62.3425045479453,-10.1217688667463,"Theobroma",-0.00958452026719493,"Removal","< 0"
"102",-62.292,-11.342,"Alvorada D'oeste",0.00029759946892674,"Emission","< 1"
"103",-62.2802379253454,-11.6431190143848,"Nova Brasilândia D'oeste",0.00107373628760365,"Emission","< 1"
"104",-62.2797715973984,-10.9434532789846,"Teixeirópolis",-0.00551413835648884,"Removal","< 0"
"105",-62.2745291015361,-12.4699545852392,"São Francisco Do Guaporé",-0.148227853083759,"Removal","< 0"
"106",-62.1725323786917,-10.6105530023623,"Vale Do Paraíso",0.24507680490267,"Emission","< 1"
"107",-62.0954094840384,-4.19868021463277,"Anori",0.0524123590879965,"Emission","< 1"
"108",-62.0940465250114,-10.3842566967605,"Vale Do Paraíso",0.0109047091765987,"Emission","< 1"
"109",-62.0832019661713,-11.6810939110983,"Novo Horizonte Do Oeste",0.00906688882584146,"Emission","< 1"
"110",-62.0603,-3.8442,"Codajás",-0.000183828973070783,"Removal","< 0"
"111",-62.010379651234,-9.20409149767888,"Machadinho D'oeste",-0.146485369983501,"Removal","< 0"
"112",-61.996788650414,2.51097097487497,"Mucajaí",-0.702743220249734,"Removal","< 0"
"113",-61.9391006698644,-9.73243429208468,"Vale Do Anari",-0.0144048457929676,"Removal","< 0"
"114",-61.8804677752413,-12.5931927088099,"Alto Alegre Dos Parecis",-0.204914434586127,"Removal","< 0"
"115",-61.8800697923836,-11.4708022615799,"Castanheiras",-0.00123606729442073,"Removal","< 0"
"116",-61.8779528163675,-11.1662739687853,"Presidente Médici",0.00620321615377882,"Emission","< 1"
"117",-61.8777578071591,-3.08201899753601,"Caapiranga",0.0181597964253384,"Emission","< 1"
"118",-61.846675,-10.870743,"Ji-Paraná",0.00155998075877979,"Emission","< 1"
"119",-61.8043525681089,-4.60623287371256,"Beruri",0.273877227384945,"Emission","< 1"
"120",-61.7715555290385,-11.7325577357808,"Rolim De Moura",-0.00257023338136913,"Removal","< 0"
"121",-61.7572526727755,-10.4622205325893,"Ji-Paraná",0.0330747965518719,"Emission","< 1"
"122",-61.7179878784548,-3.50185678710303,"Anamã",0.000889255568593341,"Emission","< 1"
"123",-61.7034202944486,-2.04824598759018,"Novo Airão",0.0329506000579229,"Emission","< 1"
"124",-61.7010906021591,-12.0269677882955,"Santa Luzia D'oeste",-0.0109297370821806,"Removal","< 0"
"125",-61.6578,-3.7489,"Anori",-0.00023872590408137,"Removal","< 0"
"126",-61.5689691690567,-11.1602942686694,"Ministro Andreazza",0.00220341798771443,"Emission","< 1"
"127",-61.5452449793137,-13.16545352887,"Cerejeiras",-0.48855817869668,"Removal","< 0"
"128",-61.472,-11.448,"Cacoal",0.00230783444668613,"Emission","< 1"
"129",-61.4703827702326,0.991174857492033,"Caracaraí",-0.973033610270679,"Removal","< 0"
"130",-61.4670704163671,-11.9049679731006,"São Felipe D'oeste",0.00110906794136377,"Emission","< 1"
"131",-61.4508,-11.496,"Cacoal",0.00269420069499811,"Emission","< 1"
"132",-61.4467731433051,-6.45995976145932,"Manicoré",0.119883089824542,"Emission","< 1"
"133",-61.4153836839233,-12.2623269078721,"Parecis",-0.0140670663925527,"Removal","< 0"
"134",-61.32472902977,-11.3012876228836,"Cacoal",0.0120149468170624,"Emission","< 1"
"135",-61.3153353804453,-11.878685960501,"Primavera De Rondônia",0.00500505353217066,"Emission","< 1"
"136",-61.2609495576208,-13.2035616127216,"Cerejeiras",-0.052091238982532,"Removal","< 0"
"137",-61.091646457599,-12.9266294189634,"Corumbiara",-0.00350563201357616,"Removal","< 0"
"138",-61.0111750079715,0.038040997334684,"Rorainópolis",-0.265119778040056,"Removal","< 0"
"139",-61.009965851638,-10.4630597738196,"Rondolândia",0.0425798311284715,"Emission","< 1"
"140",-60.9587578017748,-3.29153816842941,"Manacapuru",0.131465219587687,"Emission","< 1"
"141",-60.8983840447615,-12.5373282365406,"Chupinguaia",-0.0546203143405339,"Removal","< 0"
"142",-60.8442940271488,4.16878320977885,"Pacaraima",-0.118854850490891,"Removal","< 0"
"143",-60.8303966675936,-11.8944666198303,"Pimenta Bueno",-0.0609380477106962,"Removal","< 0"
"144",-60.7848307947635,-11.3513419023232,"Espigão D'oeste",-0.0846899913420912,"Removal","< 0"
"145",-60.7179530850046,3.11791500098908,"Boa Vista",-0.00210206326889836,"Removal","< 0"
"146",-60.6972660623645,-3.77905074057947,"Manaquiri",0.0321106463530406,"Emission","< 1"
"147",-60.690944,2.845855,"Boa Vista",0.011202163115835,"Emission","< 1"
"148",-60.6394626097032,-13.4744355013202,"Cabixi",-0.00829732434033603,"Removal","< 0"
"149",-60.5502444357698,-13.1591530901586,"Colorado Do Oeste",0.00186403313469608,"Emission","< 1"
"150",-60.5422849704425,2.27283671804715,"Cantá",-0.451458949664614,"Removal","< 0"
"151",-60.4796872188964,-3.09521872533159,"Iranduba",0.0330027600850684,"Emission","< 1"
"152",-60.4771547995604,-6.82401290167253,"Novo Aripuanã",0.511685489438204,"Emission","< 1"
"153",-60.30419381056,-9.29244066509173,"Colniza",-0.0649560060791268,"Removal","< 0"
"154",-60.3009784,-14.26727396,"Vila Bela Da Santíssima Trindade",0.00109772871125727,"Emission","< 1"
"155",-60.2764116631871,4.68251977609818,"Uiramutã",-0.0521877079490612,"Removal","< 0"
"156",-60.2596280142148,-2.62591938262421,"Manaus",-0.035272181916252,"Removal","< 0"
"157",-60.248420415597,-12.0956220171342,"Vilhena",-0.309404745326096,"Removal","< 0"
"158",-60.20800377,-14.41173578,"Vila Bela Da Santíssima Trindade",0.00364947871125727,"Emission","< 1"
"159",-60.1832732709511,-3.7704842987351,"Careiro",0.084605161007633,"Emission","< 1"
"160",-60.16356503,-14.48780741,"Vila Bela Da Santíssima Trindade",0.00455247871125727,"Emission","< 1"
"161",-60.16324926,-14.05074326,"Nova Lacerda",0.00170632871125727,"Emission","< 1"
"162",-60.1518359998705,0.884434676144147,"São Luiz",-0.0140837476474881,"Removal","< 0"
"163",-60.12016128,-12.84515382,"Vilhena",0.00432537871125727,"Emission","< 1"
"164",-60.11332637,-14.60067717,"Vila Bela Da Santíssima Trindade",-0.000269521288742727,"Removal","< 0"
"165",-60.1001390335274,2.78882424736166,"Bonfim",-0.218852299212757,"Removal","< 0"
"166",-60.098301,-12.6944,"Vilhena",0.000686765693797992,"Emission","< 1"
"167",-60.06674115,-13.9839163,"Comodoro",-0.000157471288742727,"Removal","< 0"
"168",-60.0638393723615,3.87868247155159,"Normandia",-0.0913482929789956,"Removal","< 0"
"169",-60.05875572,-12.63118944,"Comodoro",0.00526302871125727,"Emission","< 1"
"170",-60.05737987,-14.00734243,"Comodoro",0.000846128711257273,"Emission","< 1"
"171",-60.049702,-3.03861,"Manaus",0.158480399327294,"Emission","< 1"
"172",-60.03,-2.057,"Presidente Figueiredo",-0.00011556971415496,"Removal","< 0"
"173",-60.0045,-3.1487,"Manaus",0.00193718902745932,"Emission","< 1"
"174",-59.9895527675489,-1.37091958202035,"Presidente Figueiredo",-0.331782218037952,"Removal","< 0"
"175",-59.9860080539587,-15.1894443179208,"Vila Bela Da Santíssima Trindade",-0.213416908131492,"Removal","< 0"
"176",-59.953955,-3.145973,"Manaus",0.233912264811257,"Emission","< 1"
"177",-59.915041,-3.090327,"Manaus",0.0262437287112573,"Emission","< 1"
"178",-59.912,-3.13,"Manaus",0.000348088953650501,"Emission","< 1"
"179",-59.90664622,-15.17852809,"Vila Bela Da Santíssima Trindade",0.00109772871125727,"Emission","< 1"
"180",-59.8563076907437,-10.1796639413478,"Aripuanã",-0.0108777978924993,"Removal","< 0"
"181",-59.8450199612636,0.635780151206283,"São João Da Baliza",-0.0508440830266084,"Removal","< 0"
"182",-59.7714556221057,-14.2998341005992,"Nova Lacerda",-0.152569266269237,"Removal","< 0"
"183",-59.7504357914881,-13.1928102434668,"Comodoro",-1.04241774537726,"Removal","< -1"
"184",-59.73305031,-14.85543805,"Vila Bela Da Santíssima Trindade",-0.000269521288742727,"Removal","< 0"
"185",-59.69373179,-14.5907001,"Nova Lacerda",0.000550228711257273,"Emission","< 1"
"186",-59.63880299,-14.95945934,"Vila Bela Da Santíssima Trindade",0.00222882871125727,"Emission","< 1"
"187",-59.6383804200631,-2.52982292512501,"Rio Preto Da Eva",-0.0300969991578646,"Removal","< 0"
"188",-59.5986769964611,-3.28601205048528,"Careiro Da Várzea",-0.0888326661651807,"Removal","< 0"
"189",-59.55963701,-14.50267809,"Conquista D'oeste",0.00235052871125727,"Emission","< 1"
"190",-59.5346939284343,-4.95761743498613,"Borba",0.310896791479545,"Emission","< 1"
"191",-59.5255338964513,-3.78723051138339,"Autazes",0.0319364368521144,"Emission","< 1"
"192",-59.477151,-1.914499,"Presidente Figueiredo",0.963833905797657,"Emission","< 1"
"193",-59.4577422970118,-15.516822642299,"Pontes E Lacerda",-0.23472776289715,"Removal","< 0"
"194",-59.432108352059,-7.75995148042286,"Apuí",0.177045970817224,"Emission","< 1"
"195",-59.38243255,-15.07642429,"Pontes E Lacerda",0.00426767871125727,"Emission","< 1"
"196",-59.3801187,-15.24374158,"Pontes E Lacerda",-0.000269521288742727,"Removal","< 0"
"197",-59.338351861402,0.914951917819518,"Caroebe",-0.330390328734485,"Removal","< 0"
"198",-59.335,-15.221,"Pontes E Lacerda",0.00162686016287078,"Emission","< 1"
"199",-59.3322362218606,-14.6346820273622,"Conquista D'oeste",-0.134288400783658,"Removal","< 0"
"200",-59.3244952468771,-11.5320946123302,"Juína",-0.269916403569499,"Removal","< 0"
"201",-59.30607836,-15.08326848,"Pontes E Lacerda",0.00109772871125727,"Emission","< 1"
"202",-59.2844702,-14.88749554,"Pontes E Lacerda",-0.000269521288742727,"Removal","< 0"
"203",-59.25124047,-15.36744619,"Pontes E Lacerda",-0.000269521288742727,"Removal","< 0"
"204",-59.22649153,-15.07448883,"Pontes E Lacerda",0.00396357871125727,"Emission","< 1"
"205",-59.193054405051,-13.579846004553,"Campos De Júlio",-0.493263507075568,"Removal","< 0"
"206",-59.0295876768382,-0.894390376334288,"Urucará",-0.583239932645374,"Removal","< 0"
"207",-58.9853022,-13.51031593,"Sapezal",0.00109772871125727,"Emission","< 1"
"208",-58.982335313613,-15.9564035325382,"Porto Esperidião",-0.0250457741091481,"Removal","< 0"
"209",-58.9631074088735,-14.96610619188,"Vale De São Domingos",-0.179597279042718,"Removal","< 0"
"210",-58.8656657176541,-15.3047947834922,"Jauru",-0.0206572623755845,"Removal","< 0"
"211",-58.7753427983357,-3.17412347315881,"Itacoatiara",0.0118393626503609,"Emission","< 1"
"212",-58.756,-11.406,"Juína",0.00198393363051564,"Emission","< 1"
"213",-58.73550902,-13.97145769,"Sapezal",0.00523562871125727,"Emission","< 1"
"214",-58.7052609787506,-1.94176235008035,"São Sebastião Do Uatumã",-0.0675011450186731,"Removal","< 0"
"215",-58.702574634848,-15.5273863779906,"Figueirópolis D'oeste",0.00168857256154572,"Emission","< 1"
"216",-58.6751545554186,-9.53785400436084,"Cotriguaçu",-0.070328214212714,"Removal","< 0"
"217",-58.65354990934,-13.1544363665191,"Sapezal",-0.935921814238506,"Removal","< 0"
"218",-58.63145488,-12.9749009,"Sapezal",0.00121462871125727,"Emission","< 1"
"219",-58.6248256086724,-10.397452407155,"Juruena",-0.0217954239236845,"Removal","< 0"
"220",-58.6132683390867,-2.49723744324166,"Itapiranga",-0.0323016921676842,"Removal","< 0"
"221",-58.602797237143,-10.9407260428102,"Castanheira",-0.025085575076511,"Removal","< 0"
"222",-58.60110603,-11.9000804,"Juína",0.00109772871125727,"Emission","< 1"
"223",-58.5997698709424,-3.98950282165114,"Nova Olinda Do Norte",0.0363486675268085,"Emission","< 1"
"224",-58.5975919818359,-15.3352019053271,"Indiavaí",-0.00340678535277436,"Removal","< 0"
"225",-58.59528615,-12.94791838,"Sapezal",0.000661428711257273,"Emission","< 1"
"226",-58.58202454,-16.18384736,"Cáceres",-0.000269521288742727,"Removal","< 0"
"227",-58.5370873545728,-2.82054932167931,"Silves",-0.0255633738461216,"Removal","< 0"
"228",-58.47600868,-12.9313239,"Sapezal",0.00109772871125727,"Emission","< 1"
"229",-58.4665,-3.143,"Itacoatiara",0.000733450104641046,"Emission","< 1"
"230",-58.459102659513,-15.2530162746388,"Araputanga",-0.0460711428518499,"Removal","< 0"
"231",-58.4577798725755,-14.9284288173593,"Reserva Do Cabaçal",0.0206601474106242,"Emission","< 1"
"232",-58.45725864,-10.97232039,"Castanheira",5.5678711257273e-05,"Emission","< 1"
"233",-58.3252925674605,-15.8391965486319,"Glória D'oeste",0.00723548708902918,"Emission","< 1"
"234",-58.2971145470606,-15.5665635515716,"São José Dos Quatro Marcos",-0.00411877000145401,"Removal","< 0"
"235",-58.2914778422724,-14.4306181749795,"Tangará Da Serra",-0.203811854608072,"Removal","< 0"
"236",-58.2237603,-11.67679344,"Brasnorte",0.000162678711257273,"Emission","< 1"
"237",-58.22353997,-11.5860165,"Brasnorte",0.00399152871125727,"Emission","< 1"
"238",-58.215637,-10.9937863,"Juara",0.000162678711257273,"Emission","< 1"
"239",-58.18972293,-16.2559579,"Cáceres",0.00109772871125727,"Emission","< 1"
"240",-58.16779271,-16.36321387,"Cáceres",0.00109772871125727,"Emission","< 1"
"241",-58.1497724865809,-15.2729671138773,"Rio Branco",0.0045373788146837,"Emission","< 1"
"242",-58.09989512,-15.614832,"Mirassol D'oeste",0.00158507871125727,"Emission","< 1"
"243",-58.085,-15.701,"Mirassol D'oeste",-0.000146872508448109,"Removal","< 0"
"244",-58.0769412732237,-9.76844110533613,"Nova Bandeirantes",-0.0191281336438523,"Removal","< 0"
"245",-58.0609228492539,-4.98478095020853,"Maués",0.00479331410395098,"Emission","< 1"
"246",-58.0549594072212,-15.654156205262,"Mirassol D'oeste",0.0294099748619564,"Emission","< 1"
"247",-58.0508555148344,-15.0508597107544,"Salto Do Céu",0.000916196444729535,"Emission","< 1"
"248",-58.04784174,-15.58106205,"Mirassol D'oeste",9.478711257273e-06,"Emission","< 1"
"249",-58.03857337,-15.83545013,"Cáceres",0.00109772871125727,"Emission","< 1"
"250",-57.9988367438931,-12.4231038202504,"Brasnorte",-0.467537880057879,"Removal","< 0"
"251",-57.9309533487676,-13.6882996068892,"Campo Novo Do Parecis",-0.0426661761097017,"Removal","< 0"
"252",-57.91358315,-15.43245546,"Lambari D'oeste",0.00109772871125727,"Emission","< 1"
"253",-57.8925674,-13.50818396,"Campo Novo Do Parecis",0.00109962871125727,"Emission","< 1"
"254",-57.883,-21.6914,"Porto Murtinho",-0.000263672570182119,"Removal","< 0"
"255",-57.8764493715654,-15.6171127513687,"Curvelândia",-0.00259298398909907,"Removal","< 0"
"256",-57.875,-21.714,"Porto Murtinho",0.000277515817720958,"Emission","< 1"
"257",-57.86135301,-15.88830541,"Cáceres",0.00109772871125727,"Emission","< 1"
"258",-57.8340882546842,-16.5377804581933,"Cáceres",-1.22741363346966,"Removal","< -1"
"259",-57.8259982118026,-8.75863583250204,"Apiacás",-0.0620022668875363,"Removal","< 0"
"260",-57.805907589702,-1.15915039022104,"Faro",-0.074840925861722,"Removal","< 0"
"261",-57.7791794138456,-15.3770719107623,"Lambari D'oeste",0.000735475510937812,"Emission","< 1"
"262",-57.7713101392442,-2.81375732353147,"Urucurituba",-0.05834260349881,"Removal","< 0"
"263",-57.72370268,-14.62275954,"Tangará Da Serra",0.000163278711257273,"Emission","< 1"
"264",-57.69024844,-11.18728143,"Juara",0.00109772871125727,"Emission","< 1"
"265",-57.672772,-19.01193,"Corumbá",0.00184819988657852,"Emission","< 1"
"266",-57.6701099090219,-3.13781090738501,"Maués",-0.0618717495092535,"Removal","< 0"
"267",-57.665,-16.089,"Cáceres",-0.00020696710522047,"Removal","< 0"
"268",-57.661,-16.047,"Cáceres",-3.05114236690236e-05,"Removal","< 0"
"269",-57.6562448522704,-1.68058653918309,"Nhamundá",-0.195196964269103,"Removal","< 0"
"270",-57.644,-18.994,"Corumbá",0.000165739910665332,"Emission","< 1"
"271",-57.639,-16.038,"Cáceres",-0.000198812985704441,"Removal","< 0"
"272",-57.6294,-18.9975,"Corumbá",0.000301952116141611,"Emission","< 1"
"273",-57.62406,-19.00333,"Corumbá",0.0166088953779239,"Emission","< 1"
"274",-57.6184029212148,-11.0237322415865,"Juara",-0.149432518873934,"Removal","< 0"
"275",-57.615,-19,"Corumbá",0.0023079037006558,"Emission","< 1"
"276",-57.60957757,-13.69503914,"Campo Novo Do Parecis",0.00809427871125727,"Emission","< 1"
"277",-57.592,-19.004,"Ladário",-8.77988723152412e-05,"Removal","< 0"
"278",-57.58639771,-11.144907,"Juara",0.00109772871125727,"Emission","< 1"
"279",-57.57185265,-14.62391007,"Tangará Da Serra",0.00109772871125727,"Emission","< 1"
"280",-57.5688143809632,-19.103063059395,"Ladário",0.0117352116769358,"Emission","< 1"
"281",-57.5595722059162,-15.0677598802489,"Barra Do Bugres",0.00745807525421584,"Emission","< 1"
"282",-57.55911772,-13.55591953,"Campo Novo Do Parecis",0.0206926287112573,"Emission","< 1"
"283",-57.5509355,-14.59896529,"Tangará Da Serra",0.000157428711257273,"Emission","< 1"
"284",-57.52774657,-15.10627806,"Barra Do Bugres",0.00109962871125727,"Emission","< 1"
"285",-57.526,-11.271,"Juara",0.000631472856730439,"Emission","< 1"
"286",-57.47,-14.592,"Tangará Da Serra",0.000584518665290716,"Emission","< 1"
"287",-57.4214512995378,-14.8044332812226,"Nova Olímpia",0.044410967753437,"Emission","< 1"
"288",-57.41185776,-15.51473519,"Barra Do Bugres",0.000269828711257273,"Emission","< 1"
"289",-57.3835337273035,-21.2249636182254,"Porto Murtinho",-0.210264251409744,"Removal","< 0"
"290",-57.38267052,-11.31763727,"Novo Horizonte Do Norte",0.00344017871125727,"Emission","< 1"
"291",-57.3756541,-16.20446932,"Cáceres",0.00109772871125727,"Emission","< 1"
"292",-57.346724904822,-14.4503292484128,"Santo Afonso",-0.00840027624378516,"Removal","< 0"
"293",-57.3339630469314,-30.1524480455362,"Barra Do Quaraí",0.0168883635774917,"Emission","< 1"
"294",-57.3035186883959,-11.3836015398611,"Novo Horizonte Do Norte",-0.0059665976870606,"Removal","< 0"
"295",-57.3027053044799,-7.44528692343548,"Jacareacanga",-0.371895139664169,"Removal","< 0"
"296",-57.2574437430099,-14.2904297410748,"Nova Marilândia",0.0244393523569,"Emission","< 1"
"297",-57.2456562178729,-9.97018572013359,"Nova Monte Verde",0.0516816336218901,"Emission","< 1"
"298",-57.220274250998,-12.783863065376,"Nova Maringá",0.241844981789197,"Emission","< 1"
"299",-57.2155045625486,-15.5211763771302,"Porto Estrela",-0.0319624416930406,"Removal","< 0"
"300",-57.172383297958,-3.12902520639055,"Barreirinha",0.0235136365747408,"Emission","< 1"
"301",-57.1497301230321,0.254069242583288,"Oriximiná",0.0403553000265453,"Emission","< 1"
"302",-57.13890467,-14.98720974,"Barra Do Bugres",0.000162678711257273,"Emission","< 1"
"303",-57.108,-29.793,"Uruguaiana",0.00431052074175092,"Emission","< 1"
"304",-57.0878853181094,-21.938284685685,"Caracol",-0.03144067997418,"Removal","< 0"
"305",-57.0382,-29.7822,"Uruguaiana",0.000446389200264049,"Emission","< 1"
"306",-57.025,-22.011,"Caracol",-0.000243828065993262,"Removal","< 0"
"307",-57.00492408,-14.51646044,"Santo Afonso",0.00267332871125727,"Emission","< 1"
"308",-56.9616161414945,-14.7300760976715,"Denise",0.0539520134501847,"Emission","< 1"
"309",-56.9447028048734,-16.7828441432995,"Poconé",-3.19722973899874,"Removal","< -1"
"310",-56.91585045,-14.41589358,"Arenápolis",0.00109772871125727,"Emission","< 1"
"311",-56.8593416125088,-14.5070910181997,"Arenápolis",0.0108380348069726,"Emission","< 1"
"312",-56.8546448662575,-2.68809796601227,"Parintins",0.0419306663529512,"Emission","< 1"
"313",-56.82623933,-9.89766565,"Paranaíta",0.00156917871125727,"Emission","< 1"
"314",-56.8081878294502,-13.5512338723252,"São José Do Rio Claro",-0.0308322340924169,"Removal","< 0"
"315",-56.804568701896,-14.0957382916617,"Diamantino",0.0143048031882354,"Emission","< 1"
"316",-56.777625,-2.673521,"Parintins",-0.00020108128020823,"Removal","< 0"
"317",-56.7548781131128,-12.1403921842753,"Itanhangá",-0.0313784885379503,"Removal","< 0"
"318",-56.75212315,-13.44696652,"São José Do Rio Claro",0.00109772871125727,"Emission","< 1"
"319",-56.7456983475276,-11.7349582099712,"Porto Dos Gaúchos",-0.0163894393475586,"Removal","< 0"
"320",-56.7301005038815,-29.8397310880143,"Uruguaiana",0.200547159174517,"Emission","< 1"
"321",-56.72942,-20.473665,"Bodoquena",0.0531150620445906,"Emission","< 1"
"322",-56.7232999325528,-18.7225931847311,"Corumbá",-3.04014101182082,"Removal","< -1"
"323",-56.7224929356594,-14.3477372183183,"Nortelândia",0.0302033331374339,"Emission","< 1"
"324",-56.6994733379626,-20.5487721906108,"Bodoquena",0.0110509725982231,"Emission","< 1"
"325",-56.6825888031881,-9.59357436488209,"Paranaíta",0.224108002704428,"Emission","< 1"
"326",-56.665,-20.513,"Bodoquena",1.08880344717889e-05,"Emission","< 1"
"327",-56.6612417102326,-14.7597973704627,"Alto Paraguai",0.02274466119663,"Emission","< 1"
"328",-56.622,-30.244,"Quaraí",-0.000131221111301535,"Removal","< 0"
"329",-56.5962366612485,-20.1212078931127,"Miranda",-0.0678658348271408,"Removal","< 0"
"330",-56.5727399424274,-15.3378434813976,"Jangada",0.011140500810658,"Emission","< 1"
"331",-56.55919592,-14.26851385,"Nortelândia",0.0121946287112573,"Emission","< 1"
"332",-56.5370815135,-21.9328419161303,"Bela Vista",-0.0271677194733562,"Removal","< 0"
"333",-56.533,-22.127,"Bela Vista",7.55712421483406e-05,"Emission","< 1"
"334",-56.5317642746599,-12.5680085976887,"Tapurah",0.00538768607552062,"Emission","< 1"
"335",-56.4967153033799,-5.87113529203093,"Itaituba",0.66105894223071,"Emission","< 1"
"336",-56.4964420265308,-11.2141294806743,"Tabaporã",0.0182018800242906,"Emission","< 1"
"337",-56.4840398268255,-15.8390048101439,"Nossa Senhora Do Livramento",0.0132834767173464,"Emission","< 1"
"338",-56.4828142482968,-21.0332610277088,"Bonito",-0.0189043514462992,"Removal","< 0"
"339",-56.479,-30.391,"Quaraí",0.000631403602760764,"Emission","< 1"
"340",-56.462,-21.127,"Bonito",0.000543744364611276,"Emission","< 1"
"341",-56.458424135588,-1.95150349336797,"Terra Santa",-0.0867685248504827,"Removal","< 0"
"342",-56.452399,-21.2473,"Bonito",0.000958942071088417,"Emission","< 1"
"343",-56.436,-14.399,"Diamantino",-0.000139254571783847,"Removal","< 0"
"344",-56.421,-14.393,"Diamantino",-0.000261003050472689,"Removal","< 0"
"345",-56.398,-20.25,"Miranda",-6.68841734733584e-05,"Removal","< 0"
"346",-56.396801,-1.4896,"Oriximiná",-0.000227117957075641,"Removal","< 0"
"347",-56.39150447,-11.61089024,"Porto Dos Gaúchos",0.00109962871125727,"Emission","< 1"
"348",-56.3795,-1.4626,"Oriximiná",0.000658207164474581,"Emission","< 1"
"349",-56.3677085015991,-10.0558045446585,"Alta Floresta",-0.00209296979358793,"Removal","< 0"
"350",-56.356,-14.368,"Diamantino",-0.000168756762865444,"Removal","< 0"
"351",-56.3518225651313,-21.5819952582443,"Jardim",-0.0109595391209105,"Removal","< 0"
"352",-56.3180357908441,-15.1772693549162,"Acorizal",0.0081829628166942,"Emission","< 1"
"353",-56.265285,-14.644156,"Nobres",0.0516927287112573,"Emission","< 1"
"354",-56.2427510769943,-15.5624784985691,"Várzea Grande",0.00125758348278902,"Emission","< 1"
"355",-56.22433167,-12.38046033,"Ipiranga Do Norte",0.00573017871125727,"Emission","< 1"
"356",-56.2213899038594,-2.62288887000236,"Juruti",-0.0365027521436049,"Removal","< 0"
"357",-56.219968,-4.321762,"Itaituba",0.0566978120445906,"Emission","< 1"
"358",-56.182,-15.626,"Várzea Grande",-4.09831888148677e-05,"Removal","< 0"
"359",-56.178,-15.634,"Várzea Grande",-0.000193341922100107,"Removal","< 0"
"360",-56.177,-21.465,"Jardim",-0.000250268685173047,"Removal","< 0"
"361",-56.176,-15.654,"Várzea Grande",-0.000239049542085679,"Removal","< 0"
"362",-56.176,-15.616,"Várzea Grande",-0.000208577795428631,"Removal","< 0"
"363",-56.1754617388141,-29.2135591504497,"Itaqui",0.05885416370124,"Emission","< 1"
"364",-56.17,-15.613,"Várzea Grande",-8.66908088004396e-05,"Removal","< 0"
"365",-56.168,-15.612,"Várzea Grande",-0.000208577795428631,"Removal","< 0"
"366",-56.1674552537979,-13.0372626726435,"Lucas Do Rio Verde",0.123105688172517,"Emission","< 1"
"367",-56.164,-15.557,"Várzea Grande",-0.000254008399535503,"Removal","< 0"
"368",-56.15971636,-9.91901198,"Alta Floresta",-0.000269521288742727,"Removal","< 0"
"369",-56.1527374018117,-30.279385945492,"Quaraí",0.00796973896025004,"Emission","< 1"
"370",-56.149,-15.668,"Várzea Grande",-0.000239049542085679,"Removal","< 0"
"371",-56.137768,-15.333379,"Cuiabá",0.0519453120445906,"Emission","< 1"
"372",-56.135,-15.635,"Várzea Grande",-0.000193341922100107,"Removal","< 0"
"373",-56.13414289,-15.45451402,"Cuiabá",-0.000269521288742727,"Removal","< 0"
"374",-56.133,-21.465,"Jardim",-7.32555386834684e-05,"Removal","< 0"
"375",-56.131,-15.719,"Várzea Grande",-0.000193341922100107,"Removal","< 0"
"376",-56.13,-15.701,"Várzea Grande",-0.000193341922100107,"Removal","< 0"
"377",-56.13,-15.579,"Cuiabá",-0.000249922415324671,"Removal","< 0"
"378",-56.125,-15.58,"Cuiabá",-0.000264673510865469,"Removal","< 0"
"379",-56.124,-15.579,"Cuiabá",-0.000260933796503013,"Removal","< 0"
"380",-56.122,-15.579,"Cuiabá",-0.000260933796503013,"Removal","< 0"
"381",-56.12119545,-10.19133124,"Carlinda",0.000163278711257273,"Emission","< 1"
"382",-56.121,-15.703,"Várzea Grande",-0.000208577795428631,"Removal","< 0"
"383",-56.116699,-15.6529,"Várzea Grande",0.165176339391367,"Emission","< 1"
"384",-56.11307002,-13.30939043,"Lucas Do Rio Verde",0.00835997871125727,"Emission","< 1"
"385",-56.112,-15.606,"Cuiabá",-0.000263911717199043,"Removal","< 0"
"386",-56.111,-15.63,"Várzea Grande",0.00064760903166474,"Emission","< 1"
"387",-56.111,-15.604,"Cuiabá",-0.000267789939500849,"Removal","< 0"
"388",-56.109,-15.617,"Cuiabá",-0.000206584521764072,"Removal","< 0"
"389",-56.106298,-9.866389,"Alta Floresta",0.0028282421614887,"Emission","< 1"
"390",-56.1060542710769,-13.6295990661229,"Nova Mutum",0.0290977946208844,"Emission","< 1"
"391",-56.105,-15.621,"Várzea Grande",-0.000208577795428631,"Removal","< 0"
"392",-56.099,-15.572,"Cuiabá",-0.000260933796503013,"Removal","< 0"
"393",-56.098,-9.852,"Alta Floresta",0.00214778852276695,"Emission","< 1"
"394",-56.097,-15.567,"Cuiabá",-0.000263011415593267,"Removal","< 0"
"395",-56.097,-15.563,"Cuiabá",-0.00023946506590373,"Removal","< 0"
"396",-56.096,-15.561,"Cuiabá",-0.000262942161623592,"Removal","< 0"
"397",-56.094,-15.551,"Cuiabá",-0.000260933796503013,"Removal","< 0"
"398",-56.09,-15.548,"Cuiabá",-1.17580136119718e-05,"Removal","< 0"
"399",-56.085,-15.541,"Cuiabá",-0.000243758812023587,"Removal","< 0"
"400",-56.083,-15.64,"Várzea Grande",-0.000208577795428631,"Removal","< 0"
"401",-56.081,-15.671,"Várzea Grande",0.000644561856999035,"Emission","< 1"
"402",-56.07348724,-14.4256518,"Diamantino",0.00109962871125727,"Emission","< 1"
"403",-56.069,-15.678,"Cuiabá",0.00619206241857835,"Emission","< 1"
"404",-56.069,-15.559,"Cuiabá",-0.00016640212789649,"Removal","< 0"
"405",-56.065,-15.633,"Cuiabá",-0.000239097545618339,"Removal","< 0"
"406",-56.065,-15.535,"Cuiabá",-0.0002523463042633,"Removal","< 0"
"407",-56.063,-15.657,"Cuiabá",-0.000248052558143443,"Removal","< 0"
"408",-56.06156573,-11.65793207,"Porto Dos Gaúchos",-0.000269521288742727,"Removal","< 0"
"409",-56.061,-15.645,"Cuiabá",-0.000243758812023587,"Removal","< 0"
"410",-56.0586592109905,-12.0170262136988,"Ipiranga Do Norte",0.0636180861934648,"Emission","< 1"
"411",-56.058,-15.644,"Cuiabá",-0.000266197098198322,"Removal","< 0"
"412",-56.05622691,-13.7028233,"Nova Mutum",-0.000269521288742727,"Removal","< 0"
"413",-56.055,-15.657,"Cuiabá",-0.000260933796503013,"Removal","< 0"
"414",-56.054,-15.642,"Cuiabá",-0.000260933796503013,"Removal","< 0"
"415",-56.05,-15.574,"Cuiabá",-5.10942683874335e-05,"Removal","< 0"
"416",-56.046,-15.587,"Cuiabá",0.00034870889854697,"Emission","< 1"
"417",-56.0417279038091,-10.7002790700777,"Nova Canaã Do Norte",-0.053441153906421,"Removal","< 0"
"418",-56.03911787,-12.20048026,"Ipiranga Do Norte",-0.000269521288742727,"Removal","< 0"
"419",-56.039,-15.607,"Cuiabá",-0.000260933796503013,"Removal","< 0"
"420",-56.038,-15.572,"Cuiabá",0.000623162380369427,"Emission","< 1"
"421",-56.038,-15.541,"Cuiabá",-0.00022658382754416,"Removal","< 0"
"422",-56.036,-15.603,"Cuiabá",-0.000209339589095057,"Removal","< 0"
"423",-56.031,-15.62,"Cuiabá",-0.000260933796503013,"Removal","< 0"
"424",-56.031,-15.616,"Cuiabá",-6.84770147758859e-05,"Removal","< 0"
"425",-56.031,-15.58,"Cuiabá",-0.00022658382754416,"Removal","< 0"
"426",-56.0295214448918,-16.8103791889482,"Barão De Melgaço",0.290855417065665,"Emission","< 1"
"427",-56.029,-15.552,"Cuiabá",-0.000243758812023587,"Removal","< 0"
"428",-56.027,-15.622,"Cuiabá",-0.0002523463042633,"Removal","< 0"
"429",-56.027,-15.54,"Cuiabá",-0.000132052158937636,"Removal","< 0"
"430",-56.024,-28.643,"São Borja",0.00110738613633779,"Emission","< 1"
"431",-56.024,-15.561,"Cuiabá",-0.000174989620136203,"Removal","< 0"
"432",-56.018,-15.639,"Cuiabá",-0.000243758812023587,"Removal","< 0"
"433",-56.0162983565253,-3.66721510072933,"Aveiro",0.201215883824767,"Emission","< 1"
"434",-56.014,-15.621,"Cuiabá",-0.00022658382754416,"Removal","< 0"
"435",-56.004,-15.627,"Cuiabá",0.000503837790619214,"Emission","< 1"
"436",-56.0034670778621,-5.13022512626299,"Trairão",0.222946070972802,"Emission","< 1"
"437",-56.000651,-4.242131,"Itaituba",-0.000203616777277409,"Removal","< 0"
"438",-55.99952738,-14.29005935,"Diamantino",0.00109772871125727,"Emission","< 1"
"439",-55.9961416816383,-21.5416404530566,"Guia Lopes Da Laguna",-0.00620448590001099,"Removal","< 0"
"440",-55.994,-15.635,"Cuiabá",-0.000260933796503013,"Removal","< 0"
"441",-55.9723067405879,-22.2055916807531,"Antônio João",0.0105257662699617,"Emission","< 1"
"442",-55.952,-22.178,"Antônio João",-0.000259444836154999,"Removal","< 0"
"443",-55.945,-15.63,"Cuiabá",-0.000260933796503013,"Removal","< 0"
"444",-55.936586485309,-14.7643432853458,"Rosário Oeste",0.00784965980544021,"Emission","< 1"
"445",-55.9296624,-15.6885279,"Cuiabá",0.00339927871125727,"Emission","< 1"
"446",-55.912,-13.045,"Lucas Do Rio Verde",0.000395386074107993,"Emission","< 1"
"447",-55.9014588206331,-21.1008154754096,"Nioaque",-0.0370557080616681,"Removal","< 0"
"448",-55.9,-13.102,"Lucas Do Rio Verde",9.89790838985274e-05,"Emission","< 1"
"449",-55.8769901395673,-19.7462110263331,"Aquidauana",-0.228642293627862,"Removal","< 0"
"450",-55.869,-1.768,"Oriximiná",-0.000147975815154227,"Removal","< 0"
"451",-55.8688886,-10.69342013,"Nova Canaã Do Norte",0.000933428711257273,"Emission","< 1"
"452",-55.8357156747354,-29.7639550484666,"Alegrete",0.216752028693804,"Emission","< 1"
"453",-55.8341592421538,-10.1063830854303,"Carlinda",0.0208528975719229,"Emission","< 1"
"454",-55.828,-21.153,"Nioaque",-0.000123395412728247,"Removal","< 0"
"455",-55.8124790161448,-14.3769706363232,"Nobres",-0.0714486807473711,"Removal","< 0"
"456",-55.798,-20.482,"Anastácio",-0.000101234142432212,"Removal","< 0"
"457",-55.7972815403226,-28.7463922247626,"São Borja",0.0511462546015351,"Emission","< 1"
"458",-55.788,-20.486,"Anastácio",7.58482580270411e-05,"Emission","< 1"
"459",-55.783711,-14.87336,"Chapada Dos Guimarães",0.0867364137331239,"Emission","< 1"
"460",-55.774961683944,-29.0661902096133,"Maçambará",0.00646444188129206,"Emission","< 1"
"461",-55.7720689315029,-20.6962443453238,"Anastácio",-0.0380081618424855,"Removal","< 0"
"462",-55.772,-12.542,"Sorriso",-0.000186485779102271,"Removal","< 0"
"463",-55.765,-12.546,"Sorriso",-0.000209062573216357,"Removal","< 0"
"464",-55.753,-29.787,"Alegrete",0.00110669359664104,"Emission","< 1"
"465",-55.7515598929604,-15.6726981444591,"Cuiabá",-0.0088069967262316,"Removal","< 0"
"466",-55.73589302,-12.98963571,"Sorriso",0.00321312871125727,"Emission","< 1"
"467",-55.71954645,-15.52922004,"Cuiabá",0.00583507871125727,"Emission","< 1"
"468",-55.71,-12.538,"Sorriso",0.000112414354015498,"Emission","< 1"
"469",-55.702,-12.538,"Sorriso",-0.000229076970452463,"Removal","< 0"
"470",-55.7,-22.502,"Ponta Porã",0.000633550475820693,"Emission","< 1"
"471",-55.6813754869648,-12.737310035227,"Sorriso",0.0458579215919288,"Emission","< 1"
"472",-55.6748651149303,-0.169634777164337,"Óbidos",0.00946705633521277,"Emission","< 1"
"473",-55.672341,-12.479177,"Sorriso",0.0011176164566135,"Emission","< 1"
"474",-55.653,-22.514,"Ponta Porã",0.000104242385593836,"Emission","< 1"
"475",-55.64206281,-10.03090323,"Carlinda",0.00109772871125727,"Emission","< 1"
"476",-55.6120263639802,-8.06227659667582,"Novo Progresso",0.352315671872736,"Emission","< 1"
"477",-55.5898112714198,-11.1109917887982,"Itaúba",0.147705439847283,"Emission","< 1"
"478",-55.58682519,-11.9861854,"Sinop",0.00619347871125727,"Emission","< 1"
"479",-55.586109,-11.885001,"Sinop",0.00498957279423364,"Emission","< 1"
"480",-55.583278380589,-22.2014922972773,"Ponta Porã",0.104448734739992,"Emission","< 1"
"481",-55.5621895866363,-30.7384374417626,"Sant'ana Do Livramento",0.0231450645239723,"Emission","< 1"
"482",-55.5569060457938,-29.4283797077057,"Manoel Viana",0.0297928474358534,"Emission","< 1"
"483",-55.552146467588,-15.1210090527657,"Chapada Dos Guimarães",-0.102239479973273,"Removal","< 0"
"484",-55.5375015717355,-28.2334745153141,"Garruchos",0.0143594308681878,"Emission","< 1"
"485",-55.52905238,-10.72052371,"Colíder",0.00934512871125727,"Emission","< 1"
"486",-55.52808215,-12.65858801,"Vera",0.000162678711257273,"Emission","< 1"
"487",-55.525,-23.284,"Coronel Sapucaia",-0.000164463016745587,"Removal","< 0"
"488",-55.52,-23.284,"Coronel Sapucaia",-0.000227518756134773,"Removal","< 0"
"489",-55.5194,-1.9086,"Óbidos",-0.000200666469862169,"Removal","< 0"
"490",-55.518,-30.878,"Sant'ana Do Livramento",0.00115821855007932,"Emission","< 1"
"491",-55.5015190388979,-11.7108541224626,"Sinop",0.0286409129353473,"Emission","< 1"
"492",-55.4997236,-10.7044195,"Colíder",0.00109772871125727,"Emission","< 1"
"493",-55.471,-10.78,"Colíder",0.000544697632727528,"Emission","< 1"
"494",-55.4685840781738,-10.6309848756424,"Colíder",0.063665461912807,"Emission","< 1"
"495",-55.4531828013917,-22.907550922211,"Aral Moreira",0.0483988264451931,"Emission","< 1"
"496",-55.4471410467824,-16.5358277370416,"Santo Antônio Do Leverger",0.216303751649686,"Emission","< 1"
"497",-55.43162677,-11.81024029,"Sinop",0.00728172871125727,"Emission","< 1"
"498",-55.43,-23.87,"Paranhos",-1.70905692769551e-05,"Removal","< 0"
"499",-55.4260361862097,-28.4939553989514,"Santo Antônio Das Missões",0.0238112752039974,"Emission","< 1"
"500",-55.42292841,-10.33548979,"Nova Guarita",0.00109772871125727,"Emission","< 1"
"501",-55.41836989,-15.4995379,"Chapada Dos Guimarães",0.000156828711257273,"Emission","< 1"
"502",-55.4036807909991,-9.7521550728686,"Novo Mundo",0.0818094410230556,"Emission","< 1"
"503",-55.3968294302714,-21.5433529409263,"Maracaju",0.109594786671385,"Emission","< 1"
"504",-55.3811900119081,-23.3475162322726,"Coronel Sapucaia",0.0243197486638114,"Emission","< 1"
"505",-55.3624328652711,-20.600437498932,"Dois Irmãos Do Buriti",-0.0286035906080875,"Removal","< 0"
"506",-55.3533014902886,-23.7099883153041,"Paranhos",0.024137005817797,"Emission","< 1"
"507",-55.3426330817805,-12.4418593953169,"Vera",0.0619892436190479,"Emission","< 1"
"508",-55.3381782780747,-10.2938631444062,"Nova Guarita",0.0106796407462356,"Emission","< 1"
"509",-55.33695196,-11.81337168,"Sinop",0.00109772871125727,"Emission","< 1"
"510",-55.30703375,-12.33630582,"Vera",-0.000269521288742727,"Removal","< 0"
"511",-55.2940940951511,-13.8330351568984,"Santa Rita Do Trivelato",-0.0858425117589957,"Removal","< 0"
"512",-55.27178859,-9.95061925,"Novo Mundo",0.00109772871125727,"Emission","< 1"
"513",-55.2673254328078,-28.8099979660883,"Itacurubi",0.00795694854000605,"Emission","< 1"
"514",-55.2473397497685,-28.2038489073064,"São Nicolau",0.00484885584051391,"Emission","< 1"
"515",-55.2436163342975,-28.0657090029647,"Pirapó",0.00662207968956804,"Emission","< 1"
"516",-55.2384554709095,-2.67933629374346,"Santarém",-0.032175307759159,"Removal","< 0"
"517",-55.235,-23.111,"Amambai",-0.000242027462781709,"Removal","< 0"
"518",-55.231,-23.116,"Amambai",-0.000149296397386738,"Removal","< 0"
"519",-55.212,-23.126,"Amambai",-0.000159615238868329,"Removal","< 0"
"520",-55.2107400755368,-4.24104251414216,"Rurópolis",0.346822132825693,"Emission","< 1"
"521",-55.1587830177564,-29.0685034664221,"Unistalda",-0.00410257833818304,"Removal","< 0"
"522",-55.156,-23.076,"Amambai",-0.000113353587125356,"Removal","< 0"
"523",-55.15,-21.614,"Maracaju",-6.85808957303986e-05,"Removal","< 0"
"524",-55.1444087596941,-27.9337871670951,"Porto Xavier",0.0107623383566731,"Emission","< 1"
"525",-55.142,-15.56,"Campo Verde",0.000168025291664611,"Emission","< 1"
"526",-55.14,-29.549,"São Francisco De Assis",-0.000178798588468334,"Removal","< 0"
"527",-55.1320952283744,-22.6775156008329,"Laguna Carapã",0.0334793919582014,"Emission","< 1"
"528",-55.1312916631896,-29.4477896105891,"São Francisco De Assis",0.0404727404035084,"Emission","< 1"
"529",-55.12729583,-15.27784353,"Campo Verde",0.00267137871125727,"Emission","< 1"
"530",-55.113491235315,-1.84574285190855,"Curuá",-0.0460836224717867,"Removal","< 0"
"531",-55.113362549505,-15.9056025142141,"Jaciara",0.0136946007017956,"Emission","< 1"
"532",-55.112965072623,-30.325934868748,"Rosário Do Sul",0.0390472513367604,"Emission","< 1"
"533",-55.0886744421531,-28.0591294301073,"Roque Gonzales",0.00921101742360926,"Emission","< 1"
"534",-55.0796287086792,-28.2046908234209,"Dezesseis De Novembro",0.0087643042706011,"Emission","< 1"
"535",-55.0573148140826,-19.8075529823572,"Corguinho",-0.00988216437414594,"Removal","< 0"
"536",-55.0508129054548,-14.7844769739395,"Nova Brasilândia",-0.0405905147119581,"Removal","< 0"
"537",-55.04777975,-10.23735531,"Peixoto De Azevedo",-0.000218521288742727,"Removal","< 0"
"538",-55.0476982982042,-11.4481546657286,"Cláudia",0.234091391825293,"Emission","< 1"
"539",-55.0428697702921,-18.8136162499805,"Rio Verde De Mato Grosso",-0.049603877379496,"Removal","< 0"
"540",-55.0391554963246,-0.604682709063287,"Alenquer",-0.338935925446989,"Removal","< 0"
"541",-55.032,-23.642,"Tacuru",-0.000136415159027168,"Removal","< 0"
"542",-55.0293939887002,-23.879135827057,"Sete Quedas",0.00723545889889245,"Emission","< 1"
"543",-55.0240917757277,-20.4473990323833,"Terenos",-0.0056821203000756,"Removal","< 0"
"544",-55.02292858,-15.65189959,"Jaciara",-0.000269521288742727,"Removal","< 0"
"545",-54.9928497106058,-3.19112745148884,"Belterra",0.0103308806421584,"Emission","< 1"
"546",-54.9904009584863,-23.6493254357884,"Tacuru",0.0268493359524587,"Emission","< 1"
"547",-54.9840620010531,-10.5125623263105,"Terra Nova Do Norte",-0.0749040153947278,"Removal","< 0"
"548",-54.9752912420712,-27.9887994925537,"São Paulo Das Missões",0.00622985306273438,"Emission","< 1"
"549",-54.9713888499826,-28.6617476093405,"Bossoroca",0.00540647253352379,"Emission","< 1"
"550",-54.9681730243962,-23.1578083807907,"Amambai",0.086073485072526,"Emission","< 1"
"551",-54.96357857,-10.18881209,"Matupá",0.00273392871125727,"Emission","< 1"
"552",-54.9629600211274,-19.4469037529742,"Rio Negro",-0.0129832844523615,"Removal","< 0"
"553",-54.9581185167835,-15.3448363468101,"Campo Verde",0.0170577047917507,"Emission","< 1"
"554",-54.9569097965323,-27.8519819122445,"Porto Lucena",0.00726263382483849,"Emission","< 1"
"555",-54.9551986,-16.06879941,"Jaciara",-0.000269521288742727,"Removal","< 0"
"556",-54.942111972107,-21.093871213077,"Sidrolândia",0.0263804899342566,"Emission","< 1"
"557",-54.926601,-22.2019,"Dourados",0.00230704550405977,"Emission","< 1"
"558",-54.915,-30.23,"Rosário Do Sul",0.000334858104611948,"Emission","< 1"
"559",-54.91,-9.933,"Guarantã Do Norte",0.000622885364490726,"Emission","< 1"
"560",-54.9066691571384,-10.9189198759927,"Nova Santa Helena",0.0367043868376365,"Emission","< 1"
"561",-54.9042249049414,-16.182878614926,"Juscimeira",0.0340162672148216,"Emission","< 1"
"562",-54.8996958927622,-11.9346633922556,"Santa Carmem",0.171708218863536,"Emission","< 1"
"563",-54.895,-30.267,"Rosário Do Sul",0.000193441498535376,"Emission","< 1"
"564",-54.8949139989754,-28.1234865063989,"São Pedro Do Butiá",0.00127851062044806,"Emission","< 1"
"565",-54.8909210543705,-28.4184655856031,"São Luiz Gonzaga",0.0165873803496477,"Emission","< 1"
"566",-54.8896632058395,-27.7543111945772,"Porto Vera Cruz",0.00577829979042277,"Emission","< 1"
"567",-54.8734925582088,-22.005378838032,"Itaporã",0.040582643105438,"Emission","< 1"
"568",-54.863,-11.506,"Cláudia",0.000198220022442958,"Emission","< 1"
"569",-54.847,-18.905,"Rio Verde De Mato Grosso",-0.000225960541817084,"Removal","< 0"
"570",-54.842,-29.876,"Cacequi",0.000274676404964278,"Emission","< 1"
"571",-54.838882663078,-22.1448642358792,"Itaporã",0.0919475668117397,"Emission","< 1"
"572",-54.836,-22.606,"Caarapó",8.46208868898032e-07,"Emission","< 1"
"573",-54.8343944235719,-28.2548960743804,"Rolador",0.00622151773240153,"Emission","< 1"
"574",-54.8341045985162,-27.9629973588181,"Campina Das Missões",0.00468190986052456,"Emission","< 1"
"575",-54.8316732805059,-28.0997426989843,"Salvador Das Missões",0.00027418918557027,"Emission","< 1"
"576",-54.8215406005027,-29.4033390616535,"Nova Esperança Do Sul",-0.000977128651825373,"Removal","< 0"
"577",-54.82,-22.249,"Dourados",0.00211461587129257,"Emission","< 1"
"578",-54.808,-18.897,"Rio Verde De Mato Grosso",-0.000238911034146329,"Removal","< 0"
"579",-54.8028095993529,-29.920427797227,"Cacequi",0.0510057974048125,"Emission","< 1"
"580",-54.8027572934351,-22.5883119305318,"Caarapó",0.0474825698102714,"Emission","< 1"
"581",-54.8,-22.246,"Dourados",0.00207922709278859,"Emission","< 1"
"582",-54.799,-22.28,"Dourados",0.00111749721591035,"Emission","< 1"
"583",-54.7962654101527,-29.1272001788774,"Santiago",-0.0577349916023407,"Removal","< 0"
"584",-54.795,-22.204,"Dourados",0.000404181328256732,"Emission","< 1"
"585",-54.794,-22.077,"Itaporã",-0.000210516906579534,"Removal","< 0"
"586",-54.794,-22.076,"Itaporã",-0.000243689558053911,"Removal","< 0"
"587",-54.79306,-2.422423,"Santarém",0.0254520673025792,"Emission","< 1"
"588",-54.78982516,-10.8716804,"Nova Santa Helena",0.00109772871125727,"Emission","< 1"
"589",-54.7815296533861,-27.6535133524297,"Alecrim",0.0133591281416798,"Emission","< 1"
"590",-54.78002184,-11.39587795,"Cláudia",0.00109772871125727,"Emission","< 1"
"591",-54.7765279950109,-15.6563153944882,"Dom Aquino",-0.013810539190984,"Removal","< 0"
"592",-54.7595198854183,-12.9964263822447,"Nova Ubiratã",0.0907395692464098,"Emission","< 1"
"593",-54.758,-18.49,"Coxim",-0.000111760745822829,"Removal","< 0"
"594",-54.7542237074271,-29.7095826123769,"São Vicente Do Sul",0.0349639400572873,"Emission","< 1"
"595",-54.74143408,-17.17435303,"Itiquira",0.00109772871125727,"Emission","< 1"
"596",-54.7403043414856,-15.9540734965374,"São Pedro Da Cipa",0.00483638182798033,"Emission","< 1"
"597",-54.7394080367181,-28.1309704951623,"Cerro Largo",-9.75876352873088e-05,"Removal","< 0"
"598",-54.7355135846836,-19.9787141190441,"Rochedo",-0.00822233780326619,"Removal","< 0"
"599",-54.7272,-2.4156,"Santarém",0.000153446655483788,"Emission","< 1"
"600",-54.724803,-16.584292,"Rondonópolis",0.00171006578575494,"Emission","< 1"
"601",-54.7194777987048,-27.9337138386356,"Cândido Godói",0.00497529321588983,"Emission","< 1"
"602",-54.717,-20.48,"Campo Grande",0.00381488090960326,"Emission","< 1"
"603",-54.71310792,-16.05822336,"Juscimeira",-0.000269521288742727,"Removal","< 0"
"604",-54.710999866082,-27.7983624503851,"Santo Cristo",0.0136805198672189,"Emission","< 1"
"605",-54.70605583,-16.44011462,"Rondonópolis",0.000163278711257273,"Emission","< 1"
"606",-54.694,-22.175,"Dourados",-0.000240503875448856,"Removal","< 0"
"607",-54.691,-30.987,"Dom Pedrito",0.00166875881452422,"Emission","< 1"
"608",-54.6847934987379,-16.5674851376944,"Rondonópolis",0.0274976926450116,"Emission","< 1"
"609",-54.673988,-20.469998,"Campo Grande",0.0759519713300527,"Emission","< 1"
"610",-54.6739675350166,-14.588782371004,"Planalto Da Serra",-0.0736408271821084,"Removal","< 0"
"611",-54.6739131485624,-18.2811956227557,"Coxim",0.0111306857534782,"Emission","< 1"
"612",-54.669,-16.488,"Rondonópolis",0.0067094782512967,"Emission","< 1"
"613",-54.6651213499646,-31.0571078382179,"Dom Pedrito",0.116988129453656,"Emission","< 1"
"614",-54.663,-20.555,"Campo Grande",0.0343568402630846,"Emission","< 1"
"615",-54.65723615,-17.13194917,"Itiquira",-7.82128874272695e-06,"Removal","< 0"
"616",-54.6568537467841,-27.5943109043379,"Porto Mauá",0.00232881193185927,"Emission","< 1"
"617",-54.656566530779,-28.2430187002857,"Mato Queimado",0.00220482873637233,"Emission","< 1"
"618",-54.655262079953,-28.3353346888022,"Caibaté",0.00258787569041903,"Emission","< 1"
"619",-54.65462995,-17.52983524,"Sonora",-0.000269521288742727,"Removal","< 0"
"620",-54.6478286145536,-29.4584645936327,"Jaguari",-0.00313901911263,"Removal","< 0"
"621",-54.646549059671,-28.0381534941601,"Ubiretama",0.00125393590747987,"Emission","< 1"
"622",-54.6211055396438,-9.77626866971787,"Guarantã Do Norte",-0.128246996229621,"Removal","< 0"
"623",-54.614,-22.858,"Juti",-0.00023832237540409,"Removal","< 0"
"624",-54.60722988,-16.520438,"Rondonópolis",0.00659567871125727,"Emission","< 1"
"625",-54.5973205925765,-17.3338878158101,"Itiquira",0.0437512113954371,"Emission","< 1"
"626",-54.597,-25.503,"Foz Do Iguaçu",0.00154520973262383,"Emission","< 1"
"627",-54.596,-25.561,NA,0.00133280780763027,"Emission","< 1"
"628",-54.595,-25.534,"Foz Do Iguaçu",0.00186315470740225,"Emission","< 1"
"629",-54.5948485,-16.80776393,"Pedra Preta",-0.000269521288742727,"Removal","< 0"
"630",-54.593,-25.555,"Foz Do Iguaçu",0.00636999529194931,"Emission","< 1"
"631",-54.5877756958852,-22.0139824888411,"Douradina",0.00538572999753162,"Emission","< 1"
"632",-54.5864523902175,-28.167954626974,"Guarani Das Missões",0.00205424859656537,"Emission","< 1"
"633",-54.58449453,-16.35258698,"Rondonópolis",2.7778711257273e-05,"Emission","< 1"
"634",-54.5823988837051,-28.959292625585,"Capão Do Cipó",0.00836453329992491,"Emission","< 1"
"635",-54.5751531119151,-3.07044000442739,"Santarém",-0.0526783165503897,"Removal","< 0"
"636",-54.56626512,-16.7688485,"Pedra Preta",-0.000269521288742727,"Removal","< 0"
"637",-54.5661188,-10.86257575,"Marcelândia",-0.000184321288742727,"Removal","< 0"
"638",-54.566,-19.384,"São Gabriel Do Oeste",0.000381535280172972,"Emission","< 1"
"639",-54.561,-18.101,"Pedro Gomes",-0.000252865709035863,"Removal","< 0"
"640",-54.5578125731108,-21.6961399807075,"Rio Brilhante",0.0354237109068457,"Emission","< 1"
"641",-54.556,-23.689,"Iguatemi",-0.000175543651893604,"Removal","< 0"
"642",-54.5546081364002,-27.7065112725116,"Tuparendi",0.005564732538393,"Emission","< 1"
"643",-54.5383006653541,-23.4342040678327,"Iguatemi",0.0235356546968738,"Emission","< 1"
"644",-54.5376205377718,-23.8095522735643,"Japorã",0.00126179525127837,"Emission","< 1"
"645",-54.5367997896651,-28.0288282615039,"Senador Salgado Filho",0.00109712263023942,"Emission","< 1"
"646",-54.536,-25.476,"Foz Do Iguaçu",0.000258678737969329,"Emission","< 1"
"647",-54.5356613681737,-27.5467004869502,"Novo Machado",0.00512827326617963,"Emission","< 1"
"648",-54.53233283,-17.03890864,"Pedra Preta",0.00109962871125727,"Emission","< 1"
"649",-54.528,-21.805,"Rio Brilhante",-0.000208716303367981,"Removal","< 0"
"650",-54.523,-22.362,"Fátima Do Sul",-0.000127550650908754,"Removal","< 0"
"651",-54.5216275447968,-28.6727989162005,"São Miguel Das Missões",-0.0133922128783266,"Removal","< 0"
"652",-54.512,-11.105,"Marcelândia",-0.000256709304352832,"Removal","< 0"
"653",-54.504,-27.879,"Santa Rosa",-0.000156845080081325,"Removal","< 0"
"654",-54.500659026607,-3.88982415397448,"Placas",0.338358342797,"Emission","< 1"
"655",-54.4970044428078,-27.8644152166233,"Santa Rosa",0.00515881085602857,"Emission","< 1"
"656",-54.489444,-25.594167,"Foz Do Iguaçu",0.0523110150853075,"Emission","< 1"
"657",-54.4888891593795,-22.7762826649784,"Juti",0.00780559694308733,"Emission","< 1"
"658",-54.4827239441663,-19.1691455702419,"São Gabriel Do Oeste",0.0426933720106103,"Emission","< 1"
"659",-54.4823890682478,-25.470902866012,"Santa Terezinha De Itaipu",0.00463245807244378,"Emission","< 1"
"660",-54.48110232,-16.80793928,"Pedra Preta",0.00121462871125727,"Emission","< 1"
"661",-54.473,-16.627,"Pedra Preta",-0.000206223160459677,"Removal","< 0"
"662",-54.467894475123,-29.5375374105721,"Mata",-0.00232765942386596,"Removal","< 0"
"663",-54.4636498966351,-28.3817226826844,"Vitória Das Missões",0.00131515856384637,"Emission","< 1"
"664",-54.4601036235878,-28.1451500701692,"Sete De Setembro",-0.000308939353774303,"Removal","< 0"
"665",-54.4397271696476,-22.3373268089478,"Dourados",0.0048004007283911,"Emission","< 1"
"666",-54.43937359,-16.28771221,"Rondonópolis",0.00109772871125727,"Emission","< 1"
"667",-54.4323888277525,-17.6486399346019,"Sonora",-0.0428799575277416,"Removal","< 0"
"668",-54.4309926111385,-27.6393583891787,"Tucunduva",0.00477252098534405,"Emission","< 1"
"669",-54.4273731737574,-25.456644690346,"Santa Terezinha De Itaipu",0.00841845963477767,"Emission","< 1"
"670",-54.4248716666413,-22.4672182335586,"Vicentina",0.00604914827782274,"Emission","< 1"
"671",-54.41361499,-17.06236174,"Pedra Preta",-0.000269521288742727,"Removal","< 0"
"672",-54.406,-25.408,"Santa Terezinha De Itaipu",0.000254869769637197,"Emission","< 1"
"673",-54.39448615,-16.28558252,"Poxoréo",0.00119632871125727,"Emission","< 1"
"674",-54.3665818744681,-27.4878956842971,"Doutor Maurício Cardoso",0.00323669798757328,"Emission","< 1"
"675",-54.3654252153218,-30.3052667337779,"São Gabriel",0.00442582216609413,"Emission","< 1"
"676",-54.3595697023837,-25.1550118271706,"Itaipulândia",0.00745091386934732,"Emission","< 1"
"677",-54.3568742191394,-10.0139757599359,"Matupá",0.0149187811915567,"Emission","< 1"
"678",-54.3530489592426,-1.07440016717301,"Monte Alegre",-0.313911658152646,"Removal","< 0"
"679",-54.3482973655232,-20.2272336403119,"Jaraguari",-0.0422221685939264,"Removal","< 0"
"680",-54.3391532093931,-17.9143098929874,"Pedro Gomes",0.0061137030474291,"Emission","< 1"
"681",-54.32817101,-15.71950234,"Poxoréo",0.000530528711257273,"Emission","< 1"
"682",-54.318,-24.854,"Santa Helena",0.000443379075092844,"Emission","< 1"
"683",-54.3164472844716,-11.5276759969216,"União Do Sul",0.203404866805524,"Emission","< 1"
"684",-54.313,-15.549,"Primavera Do Leste",0.00160546068624117,"Emission","< 1"
"685",-54.308,-30.335,"São Gabriel",0.000441855487759991,"Emission","< 1"
"686",-54.3062403121828,-24.8872746295342,"Santa Helena",0.0178623664461062,"Emission","< 1"
"687",-54.3055230014962,-19.8056309409195,"Bandeirantes",-0.0218677159956182,"Removal","< 0"
"688",-54.303,-22.488,"Jateí",-0.000242027462781709,"Removal","< 0"
"689",-54.302,-25.123,"Missal",-0.000121248539668319,"Removal","< 0"
"690",-54.3018723309496,-28.4595493617085,"Eugênio De Castro",0.00238046676724591,"Emission","< 1"
"691",-54.299844,-2.817134,"Santarém",0.0267840919288573,"Emission","< 1"
"692",-54.2991096115323,-28.0300027280751,"Giruá",0.00747208301396436,"Emission","< 1"
"693",-54.298773968311,-29.4704255785849,"Toropi",-0.00846110572533181,"Removal","< 0"
"694",-54.298703089383,-27.5902808714549,"Horizontina",0.00538872259430687,"Emission","< 1"
"695",-54.2980465292173,-29.2914830850651,"Jari",-0.0202501603872018,"Removal","< 0"
"696",-54.2977480672625,-28.250488810239,"Santo Ângelo",0.00540898506032634,"Emission","< 1"
"697",-54.296,-23.78,"Eldorado",-0.000202067922279171,"Removal","< 0"
"698",-54.287,-24.096,"Guaíra",0.00094976410135724,"Emission","< 1"
"699",-54.283,-28.316,"Santo Ângelo",0.000732999176274149,"Emission","< 1"
"700",-54.272,-28.288,"Santo Ângelo",-0.000167025413623566,"Removal","< 0"
"701",-54.2707902870489,-23.9419869470394,"Mundo Novo",0.00479800461554185,"Emission","< 1"
"702",-54.27033145,-15.69144882,"Poxoréo",0.00109772871125727,"Emission","< 1"
"703",-54.268082283754,-16.4709557410201,"São José Do Povo",0.00405113541476611,"Emission","< 1"
"704",-54.268,-25.333,"São Miguel Do Iguaçu",0.000480360694899352,"Emission","< 1"
"705",-54.2653585522083,-27.7315851800032,"Três De Maio",0.00985335366300902,"Emission","< 1"
"706",-54.2618469468895,-25.3882410082475,"São Miguel Do Iguaçu",0.0110133213574705,"Emission","< 1"
"707",-54.2526268595437,-24.6337870266301,"Pato Bragado",0.00415709095197257,"Emission","< 1"
"708",-54.2519374,-15.71288842,"Poxoréo",0.000156828711257273,"Emission","< 1"
"709",-54.2494637609653,-20.9135843240394,"Campo Grande",-0.0562966792901974,"Removal","< 0"
"710",-54.2492077641728,-16.79517259148,"Pedra Preta",0.0341787368829031,"Emission","< 1"
"711",-54.2450235765186,-28.5655579473818,"Eugênio De Castro",0.0014102920187434,"Emission","< 1"
"712",-54.2412805516138,-25.0955715654692,"Missal",0.00737527905456188,"Emission","< 1"
"713",-54.2380032297696,-29.6113822589855,"São Pedro Do Sul",-0.0109182420301206,"Removal","< 0"
"714",-54.2276656172601,-24.1915329558105,"Guaíra",0.015616790626083,"Emission","< 1"
"715",-54.227111108387,-24.7114734620419,"Entre Rios Do Oeste",0.00450395073963585,"Emission","< 1"
"716",-54.2250910215198,-23.7382389856807,"Eldorado",0.0144193356437085,"Emission","< 1"
"717",-54.224,-23.065,"Naviraí",0.00042204885243291,"Emission","< 1"
"718",-54.2199543593322,-15.0966827539872,"Primavera Do Leste",0.0993499634740721,"Emission","< 1"
"719",-54.2164443002466,-21.4910116521845,"Nova Alvorada Do Sul",-0.0101674917903646,"Removal","< 0"
"720",-54.1924899032112,-22.4272452117537,"Glória De Dourados",-0.00137467898237818,"Removal","< 0"
"721",-54.1860334132577,-24.4334079526889,"Mercedes",0.00451815670543479,"Emission","< 1"
"722",-54.186018785098,-15.8510061173384,"Poxoréo",0.00730985630860389,"Emission","< 1"
"723",-54.1848038624019,-11.9329012375014,"Feliz Natal",0.11575719737731,"Emission","< 1"
"724",-54.1804448810154,-27.9011938680588,"Independência",0.00446978387573454,"Emission","< 1"
"725",-54.169623,-28.282503,"Santo Ângelo",-6.40003867176783e-05,"Removal","< 0"
"726",-54.1632332137995,-29.8134454096257,"Dilermando De Aguiar",-0.00804892274584678,"Removal","< 0"
"727",-54.1547960223896,-28.7665437769057,"Jóia",0.000342665902904489,"Emission","< 1"
"728",-54.1536058449451,-30.7720805498148,"Lavras Do Sul",-0.0397003123283107,"Removal","< 0"
"729",-54.1520819472185,-22.1560907022644,"Deodápolis",0.00169975282739503,"Emission","< 1"
"730",-54.1391159865217,-31.6905554528918,"Aceguá",0.0489979210351643,"Emission","< 1"
"731",-54.1388863225019,-24.571758294073,"Marechal Cândido Rondon",0.0175249749981456,"Emission","< 1"
"732",-54.1364725981392,-27.4875418443446,"Crissiumal",0.0152831359372356,"Emission","< 1"
"733",-54.1254548580323,-27.5952623683416,"Nova Candelária",0.00263584739390405,"Emission","< 1"
"734",-54.1241266982111,-27.7383699953306,"São José Do Inhacorá",0.00381322584431773,"Emission","< 1"
"735",-54.1204122596184,-27.3693287043462,"Tiradentes Do Sul",0.0125344713363411,"Emission","< 1"
"736",-54.1195715221289,-24.8154720317237,"São José Das Palmeiras",0.00547793281544895,"Emission","< 1"
"737",-54.1191667963513,-23.3415683508301,"Itaquiraí",0.0496611656759433,"Emission","< 1"
"738",-54.1089901635314,-13.6776540864373,"Paranatinga",-0.0847466793098363,"Removal","< 0"
"739",-54.101,-25.286,"Medianeira",0.000346077247699316,"Emission","< 1"
"740",-54.1003020244646,-24.9542118124118,"Diamante D'oeste",0.00429675973946346,"Emission","< 1"
"741",-54.0997661530024,-27.6748033155781,"Boa Vista Do Buricá",0.00616646725607565,"Emission","< 1"
"742",-54.0977176351426,-30.3710595279201,"Santa Margarida Do Sul",-0.0182777823926972,"Removal","< 0"
"743",-54.0919207887126,-25.2631709630727,"Medianeira",0.0076860070491856,"Emission","< 1"
"744",-54.079,-31.395,"Bagé",-0.000197317099959458,"Removal","< 0"
"745",-54.0760714483107,-25.0943619531087,"Ramilândia",0.00829775629331097,"Emission","< 1"
"746",-54.0654908840055,-29.3096403632454,"Quevedos",-0.00114474394016293,"Removal","< 0"
"747",-54.0627792090778,-24.2087136159621,"Terra Roxa",0.026783875793318,"Emission","< 1"
"748",-54.0603217883469,-28.4038679006452,"Coronel Barros",0.000452029318408872,"Emission","< 1"
"749",-54.059,-14.43,"Paranatinga",0.000814580352551427,"Emission","< 1"
"750",-54.0562082374864,-27.8135434051408,"Alegria",0.00331145728074125,"Emission","< 1"
"751",-54.0534156580906,-10.8862641170858,"Marcelândia",0.0346667639673424,"Emission","< 1"
"752",-54.049,-19.53,"Camapuã",-8.63099119672265e-05,"Removal","< 0"
"753",-54.041,-24.575,"Marechal Cândido Rondon",7.63330358147667e-05,"Emission","< 1"
"754",-54.0343683505515,-28.1684838650639,"Catuípe",0.00102141426814106,"Emission","< 1"
"755",-54.0305505302094,-27.9025080301155,"Inhacorá",0.000338463433002578,"Emission","< 1"
"756",-54.029962505838,-25.4795093074341,"Serranópolis Do Iguaçu",-0.00253411871163091,"Removal","< 0"
"757",-54.0256657412317,-23.0225380542412,"Naviraí",0.0722317515478028,"Emission","< 1"
"758",-54.0165197209629,-31.2364659513981,"Bagé",0.0210088670014105,"Emission","< 1"
"759",-54.0086834089041,-27.3284660976273,"Esperança Do Sul",0.00713434313828071,"Emission","< 1"
"760",-54.0072879185028,-28.5338684289092,"Augusto Pestana",0.00175512688715005,"Emission","< 1"
"761",-54.0034966561396,-29.0205151853595,"Tupanciretã",0.0419075301389832,"Emission","< 1"
"762",-53.994,-25.251,"Matelândia",0.000178344133146202,"Emission","< 1"
"763",-53.9798954566561,-27.5742098386823,"Humaitá",0.00164002168442764,"Emission","< 1"
"764",-53.9765344297987,-24.5717419027967,"Quatro Pontes",0.00238454407186487,"Emission","< 1"
"765",-53.9585386969493,-24.4403550720897,"Nova Santa Rosa",0.00507701842750386,"Emission","< 1"
"766",-53.957309263778,-22.7067257851797,"Jateí",0.00666972822357121,"Emission","< 1"
"767",-53.9532376284176,-27.7290472341829,"São Martinho",0.00273022362411793,"Emission","< 1"
"768",-53.9531579912781,-27.6411263274913,"Sede Nova",0.00184585362122606,"Emission","< 1"
"769",-53.9488437154336,-23.902557959804,"Altônia",0.00284677162910058,"Emission","< 1"
"770",-53.9477318009393,-23.7385986467369,"São Jorge Do Patrocínio",-0.00917537805268037,"Removal","< 0"
"771",-53.9292773303758,-27.4410159395004,"Três Passos",0.0115088133308157,"Emission","< 1"
"772",-53.9204604415903,-25.007371785153,"Vera Cruz Do Oeste",0.00716441004836544,"Emission","< 1"
"773",-53.917,-28.357,"Ijuí",0.000158052720031395,"Emission","< 1"
"774",-53.91,-23.881,"Altônia",0.000210685736984478,"Emission","< 1"
"775",-53.9098492129317,-27.9864932503598,"Chiapetta",0.00411081110384051,"Emission","< 1"
"776",-53.9096819063522,-24.7937951686936,"Ouro Verde Do Oeste",0.0059082729926973,"Emission","< 1"
"777",-53.9086932845686,-27.8210537216048,"São Valério Do Sul",-0.00126946116956096,"Removal","< 0"
"778",-53.9060071224805,-25.3510464641824,"Matelândia",-0.00253358903638878,"Removal","< 0"
"779",-53.8948825999283,-28.3204490217357,"Ijuí",0.000641134642639706,"Emission","< 1"
"780",-53.8938752587932,0.284988912442242,"Almeirim",-0.0379186552933757,"Removal","< 0"
"781",-53.8922792973599,-27.2412871250127,"Derrubadas",0.0106194287125636,"Emission","< 1"
"782",-53.8907314490113,-24.906504172123,"São Pedro Do Iguaçu",0.00738472531166622,"Emission","< 1"
"783",-53.8894768178976,-31.447733389062,"Hulha Negra",0.0121609728963594,"Emission","< 1"
"784",-53.8866832078342,-6.48617176855341,"Altamira",2.01988597058644,"Emission","< 5"
"785",-53.8862784595536,-29.4748081172664,"São Martinho Da Serra",0.00305802367533796,"Emission","< 1"
"786",-53.882,-25.047,"Vera Cruz Do Oeste",-0.000155806270536198,"Removal","< 0"
"787",-53.8789185825828,-30.3459939931326,"Vila Nova Do Sul",-0.00852663133153365,"Removal","< 0"
"788",-53.8723267436865,-24.0948178211584,"Francisco Alves",0.00536316746622959,"Emission","< 1"
"789",-53.8695156320697,-19.3419254526577,"Camapuã",0.00234635141416814,"Emission","< 1"
"790",-53.8658024479816,-22.062443797085,"Angélica",0.00234426204575664,"Emission","< 1"
"791",-53.865,-25.12,"Céu Azul",0.000160684370879049,"Emission","< 1"
"792",-53.8623513558615,-18.7444497755333,"Figueirão",0.0347063214753607,"Emission","< 1"
"793",-53.855,-25.05,"Vera Cruz Do Oeste",-0.000108990587035825,"Removal","< 0"
"794",-53.852,-24.269,"Palotina",0.00070792923925176,"Emission","< 1"
"795",-53.8489269659586,-27.5452636631144,"Bom Progresso",-0.00017955717796964,"Removal","< 0"
"796",-53.8375996546174,-28.6560860821374,"Boa Vista Do Cadeado",0.00943136393507967,"Emission","< 1"
"797",-53.8250368820059,-29.7849214049011,"Santa Maria",0.00540160801546346,"Emission","< 1"
"798",-53.8246458685651,-23.5388385801897,"Alto Paraíso",0.011830277123566,"Emission","< 1"
"799",-53.8246050410259,-27.6683283490948,"Campo Novo",0.00359202373639331,"Emission","< 1"
"800",-53.8240404254026,-24.2746361009445,"Palotina",0.0228857320727378,"Emission","< 1"
"801",-53.822,-29.729,"Santa Maria",0.0118172355307147,"Emission","< 1"
"802",-53.807336098532,-3.58361614429638,"Uruará",-0.124597985252672,"Removal","< 0"
"803",-53.7991427811173,-22.3714789600588,"Ivinhema",0.00162323249534713,"Emission","< 1"
"804",-53.7987820543388,-23.714390171179,"Esperança Nova",-0.00192891680031994,"Removal","< 0"
"805",-53.7969735,-16.8454894,"Alto Garças",0.00459532871125727,"Emission","< 1"
"806",-53.7916909090122,-24.4448536142835,"Maripá",0.00889466469526335,"Emission","< 1"
"807",-53.7818716657741,-22.6030329246406,"Novo Horizonte Do Sul",0.00281502208096075,"Emission","< 1"
"808",-53.781,-25.65,"Capanema",0.00013589144973536,"Emission","< 1"
"809",-53.7778875469667,-24.7048606279856,"Toledo",0.0219857127138575,"Emission","< 1"
"810",-53.769,-22.133,"Angélica",-0.000237214311889289,"Removal","< 0"
"811",-53.7640955704394,-27.3725901206609,"Tenente Portela",0.00845265351175662,"Emission","< 1"
"812",-53.7636601774659,-27.205304969592,"Barra Do Guarita",0.00285503778568045,"Emission","< 1"
"813",-53.7620389009962,-29.576947807833,"Itaara",0.00565379897516606,"Emission","< 1"
"814",-53.7617863401564,-25.2462777022897,"Céu Azul",-0.00286974509696957,"Removal","< 0"
"815",-53.7606014861618,-25.6105301822045,"Capanema",0.0133122204932333,"Emission","< 1"
"816",-53.7595767383039,-25.8497396509333,"Pérola D'oeste",0.00350811111131919,"Emission","< 1"
"817",-53.7558150718607,-27.9030809014165,"Santo Augusto",0.00624504656122669,"Emission","< 1"
"818",-53.754,-20.438,"Ribas Do Rio Pardo",-0.000126719603272652,"Removal","< 0"
"819",-53.752,-24.706,"Toledo",0.00148939103306569,"Emission","< 1"
"820",-53.7517789951173,-28.354318581118,"Bozano",0.00175898827036088,"Emission","< 1"
"821",-53.7491923463677,-18.2091524356866,"Alcinópolis",0.0506283603997325,"Emission","< 1"
"822",-53.7457195941121,-31.554434760551,"Candiota",0.020468618629404,"Emission","< 1"
"823",-53.74557395646,-27.4904230045171,"Miraguaí",0.00168725295442407,"Emission","< 1"
"824",-53.745,-26.024,"Pranchita",-0.000200682842885669,"Removal","< 0"
"825",-53.7421549640511,-27.5811980597019,"Braga",-0.00124970727522175,"Removal","< 0"
"826",-53.74,-24.747,"Toledo",-0.00013624202410298,"Removal","< 0"
"827",-53.739,-24.744,"Toledo",7.20392896949101e-05,"Emission","< 1"
"828",-53.738,-24.709,"Toledo",0.000830716527485728,"Emission","< 1"
"829",-53.7371990902685,-28.2099312936232,"Ajuricaba",0.00123390246820334,"Emission","< 1"
"830",-53.734,-24.742,"Toledo",0.00207701096575899,"Emission","< 1"
"831",-53.73320111,-14.87263564,"Santo Antônio Do Leste",6.3378711257273e-05,"Emission","< 1"
"832",-53.724,-24.713,"Toledo",0.000172042021905767,"Emission","< 1"
"833",-53.7205563484108,-25.965626158046,"Pranchita",-0.00174252125606771,"Removal","< 0"
"834",-53.7198322136792,-24.0451159749723,"Iporã",0.00751488575248223,"Emission","< 1"
"835",-53.7079891675455,-27.1143884768066,"Itapiranga",0.0108320432568282,"Emission","< 1"
"836",-53.7076974982304,-25.7371291030894,"Planalto",0.0107819088233274,"Emission","< 1"
"837",-53.7070634890498,-23.8307943456212,"Pérola",0.00105045376144235,"Emission","< 1"
"838",-53.7036744037855,-28.0761818999935,"Nova Ramada",-0.00197556061332278,"Removal","< 0"
"839",-53.703,-24.032,"Iporã",-5.6426824052417e-05,"Removal","< 0"
"840",-53.7007508436272,-27.2657559014244,"Vista Gaúcha",0.00491613412012752,"Emission","< 1"
"841",-53.6913031092965,-31.8390032462951,"Pedras Altas",0.0520055654354185,"Emission","< 1"
"842",-53.688202,-29.711399,"Santa Maria",0.000299963983427366,"Emission","< 1"
"843",-53.6765106962335,-26.6627529680989,"Paraíso",-0.00565012905844514,"Removal","< 0"
"844",-53.67145,-31.585375,"Candiota",0.0226607287112573,"Emission","< 1"
"845",-53.6699272708642,-14.8051500770965,"Santo Antônio Do Leste",0.0106315259969952,"Emission","< 1"
"846",-53.6601720601094,-2.12024527059752,"Prainha",-0.129940161703096,"Removal","< 0"
"847",-53.6524437649879,-29.2584352814607,"Júlio De Castilhos",0.0102369371315287,"Emission","< 1"
"848",-53.65,-28.632,"Cruz Alta",0.00103820142063235,"Emission","< 1"
"849",-53.6477457651714,-26.9890413889842,"Tunápolis",0.001579414584051,"Emission","< 1"
"850",-53.6472309080263,-26.7682563269237,"Bandeirante",-0.0062676199890133,"Removal","< 0"
"851",-53.6463510078552,-27.7977034286202,"Coronel Bicaco",0.00622655307356677,"Emission","< 1"
"852",-53.6343012991337,-27.2216845224649,"Pinheirinho Do Vale",0.00555613762395768,"Emission","< 1"
"853",-53.6342598590289,-25.881025027314,"Bela Vista Da Caroba",0.000710394869080586,"Emission","< 1"
"854",-53.631683987194,-27.5701382531953,"Redentora",-0.00171440112180793,"Removal","< 0"
"855",-53.6290968059098,-26.0651465988298,"Santo Antônio Do Sudoeste",-0.00654282139529583,"Removal","< 0"
"856",-53.6198236852682,-30.1757370288418,"São Sepé",-0.00372795596334004,"Removal","< 0"
"857",-53.6180259404482,-26.9221723037161,"Santa Helena",-0.00145076103808335,"Removal","< 0"
"858",-53.6166815210433,-26.856837990765,"Belmonte",-0.00284976422997888,"Removal","< 0"
"859",-53.6114737204784,-26.43293594674,"Princesa",-0.00181169343678901,"Removal","< 0"
"860",-53.6060153229709,-25.0366092547022,"Santa Tereza Do Oeste",0.000298146763243874,"Emission","< 1"
"861",-53.5939472408949,-10.1495150710014,"Peixoto De Azevedo",0.17435988598747,"Emission","< 1"
"862",-53.5937319618651,-28.4538374308859,"Pejuçara",0.0106107158366031,"Emission","< 1"
"863",-53.5932872695505,-25.4695780586688,"Capitão Leônidas Marques",0.00854236741763191,"Emission","< 1"
"864",-53.5919529064527,-23.7357485044382,"Xambrê",0.000175497313603523,"Emission","< 1"
"865",-53.5916641463411,-27.0916071292338,"São João Do Oeste",0.00642987320162465,"Emission","< 1"
"866",-53.5900755526219,-16.3847467760887,"Guiratinga",0.0488167167556953,"Emission","< 1"
"867",-53.5878463669568,-27.3278161210403,"Palmitinho",0.00472893836518247,"Emission","< 1"
"868",-53.5856186597508,-23.3736091963711,"Icaraíma",0.0190113327658438,"Emission","< 1"
"869",-53.5845889627932,-24.4259937520367,"Assis Chateaubriand",0.0279918649899974,"Emission","< 1"
"870",-53.5836330616671,-29.5135708058325,"Ivorá",0.00486632842212057,"Emission","< 1"
"871",-53.5809391565788,-16.8882416234431,"Alto Garças",0.0113298645429129,"Emission","< 1"
"872",-53.578,-29.515,"Ivorá",-0.000256293780534781,"Removal","< 0"
"873",-53.5702024990969,-29.6333932580679,"Silveira Martins",0.0041868227530382,"Emission","< 1"
"874",-53.5693081860104,-26.5802536008918,"Guaraciaba",-0.00686560417114258,"Removal","< 0"
"875",-53.56875,-20.672917,"Ribas Do Rio Pardo",0.00508514469525727,"Emission","< 1"
"876",-53.5625704069203,-28.7029746152653,"Cruz Alta",0.0198160714676104,"Emission","< 1"
"877",-53.561641664116,-23.9394127015085,"Cafezal Do Sul",0.00270921605542148,"Emission","< 1"
"878",-53.559279,-31.513208,"Pinheiro Machado",0.0516927287112573,"Emission","< 1"
"879",-53.5580465255639,-25.2579546562369,"Lindoeste",0.00123546362138095,"Emission","< 1"
"880",-53.553,-27.237,"Caiçara",-0.000141470698813451,"Removal","< 0"
"881",-53.5528680102748,-25.3847507921925,"Santa Lúcia",0.00402274013880792,"Emission","< 1"
"882",-53.5517614519636,-26.1621996780104,"Bom Jesus Do Sul",-0.00733054770585722,"Removal","< 0"
"883",-53.5441898167294,-20.5966364871088,"Ribas Do Rio Pardo",-0.402976181757924,"Removal","< 0"
"884",-53.5435280722063,-25.6744007904488,"Realeza",0.0100022132898894,"Emission","< 1"
"885",-53.5416962014828,-24.1660871295594,"Brasilândia Do Sul",0.00754335287696564,"Emission","< 1"
"886",-53.534,-24.374,"Assis Chateaubriand",0.000472534996326064,"Emission","< 1"
"887",-53.5308102847662,-26.4805862762545,"São José Do Cedro",-0.00922126951153795,"Removal","< 0"
"888",-53.53,-25.758,"Realeza",0.000226960419858129,"Emission","< 1"
"889",-53.5214690141972,-23.0424364816834,"Querência Do Norte",0.0284189067421497,"Emission","< 1"
"890",-53.5207901187129,-26.3334586650008,"Dionísio Cerqueira",-0.00480405905629554,"Removal","< 0"
"891",-53.5202564452139,-26.2464143376369,"Barracão",-0.00190589998733285,"Removal","< 0"
"892",-53.5187218692369,-27.5140632376285,"Erval Seco",0.00792906525670069,"Emission","< 1"
"893",-53.5121212291842,-26.7272369451984,"São Miguel Do Oeste",-0.00100512737748771,"Removal","< 0"
"894",-53.5102920411937,-27.3248393237706,"Vista Alegre",0.00373642093403264,"Emission","< 1"
"895",-53.50930160978,-24.6460043681594,"Tupãssi",0.00498509150867321,"Emission","< 1"
"896",-53.5074266490586,-28.3295505334992,"Panambi",0.00228446102649095,"Emission","< 1"
"897",-53.5062068090388,-29.9754614142379,"Formigueiro",0.00742958734995789,"Emission","< 1"
"898",-53.503,-24.935,"Cascavel",0.00229471009515249,"Emission","< 1"
"899",-53.501208,-25.000323,"Cascavel",0.00480269658744773,"Emission","< 1"
"900",-53.495961180417,-27.6761917926526,"Dois Irmãos Das Missões",0.00183812292121367,"Emission","< 1"
"901",-53.4939079607316,-28.1655028164338,"Condor",0.00323318616610095,"Emission","< 1"
"902",-53.4894144189802,-27.0004316348861,"Iporã Do Oeste",0.0041375504381423,"Emission","< 1"
"903",-53.488542,-25.542197,"Nova Prata Do Iguaçu",0.202544677922991,"Emission","< 1"
"904",-53.487,-24.917,"Cascavel",0.00617622268479836,"Emission","< 1"
"905",-53.4858288973421,-27.4084087298999,"Taquaruçu Do Sul",0.00175555767486438,"Emission","< 1"
"906",-53.485,-25.906,"Ampére",0.000349886216031447,"Emission","< 1"
"907",-53.4840206614218,-26.3983363630105,"Guarujá Do Sul",-0.00123634149209729,"Removal","< 0"
"908",-53.4832217779515,-25.9166536718866,"Ampére",0.000339266739427794,"Emission","< 1"
"909",-53.4793005218537,-26.8584135946273,"Descanso",-0.00259947852961514,"Removal","< 0"
"910",-53.4780258791804,-26.016007641587,"Pinhal De São Bento",-0.00254219574602707,"Removal","< 0"
"911",-53.477940123104,-30.5934229150864,"Caçapava Do Sul",-0.0332654843687945,"Removal","< 0"
"912",-53.4704779407295,-29.6420956865966,"São João Do Polêsine",0.00419145929160169,"Emission","< 1"
"913",-53.4669968061269,-17.4495040717356,"Alto Araguaia",0.0188540916094393,"Emission","< 1"
"914",-53.4665546571663,-27.2465520827325,"Caiçara",0.0111481835626071,"Emission","< 1"
"915",-53.4628834647431,-29.5579337496153,"Faxinal Do Soturno",0.00833874525148133,"Emission","< 1"
"916",-53.4615017858915,-28.8652400649076,"Boa Vista Do Incra",0.00731701582264781,"Emission","< 1"
"917",-53.461,-24.013,"Alto Piquiri",1.82289552573504e-05,"Emission","< 1"
"918",-53.4563699422081,-15.9065644943324,"Tesouro",0.01875632383546,"Emission","< 1"
"919",-53.4561769715579,-12.9959615848862,"Gaúcha Do Norte",1.00727264823217,"Emission","< 5"
"920",-53.454,-25.078,"Cascavel",0.0049805528983576,"Emission","< 1"
"921",-53.4464970781198,-27.0992925844265,"Mondaí",0.00976519382435172,"Emission","< 1"
"922",-53.4310608702885,-22.6678259462412,"Taquarussu",0.00628877525970826,"Emission","< 1"
"923",-53.4250553572771,-26.6683578376879,"Barra Bonita",0.000936344319465812,"Emission","< 1"
"924",-53.4242793421559,-23.3538513616914,"Ivaté",0.0244889328652164,"Emission","< 1"
"925",-53.4230396398251,-25.783583134957,"Santa Izabel Do Oeste",0.00472980955831491,"Emission","< 1"
"926",-53.4219677580571,-21.9255816038253,"Nova Andradina",-0.00784555090424424,"Removal","< 0"
"927",-53.4218305476335,-25.4319686902874,"Boa Vista Da Aparecida",0.00740181689626879,"Emission","< 1"
"928",-53.4162393857794,-29.4333226358147,"Nova Palma",0.00133066742725372,"Emission","< 1"
"929",-53.4154104969735,-26.1412813499715,"Salgado Filho",-0.00786376943678896,"Removal","< 0"
"930",-53.4141131777112,-23.6798384524001,"Umuarama",0.0249861967878785,"Emission","< 1"
"931",-53.413454474807,-31.4051017438463,"Pinheiro Machado",0.0526813168633581,"Emission","< 1"
"932",-53.4117100872337,-33.6508248662208,"Chuí",0.0112481416444625,"Emission","< 1"
"933",-53.4105972014362,-24.413958872007,"Jesuítas",0.00906493172879696,"Emission","< 1"
"934",-53.4019824513113,-24.0982967335145,"Alto Piquiri",0.0100949597273847,"Emission","< 1"
"935",-53.4014858105635,-32.0209063167727,"Herval",0.0458515668420417,"Emission","< 1"
"936",-53.3931935968974,-15.5580259013849,"General Carneiro",0.00309096153290933,"Emission","< 1"
"937",-53.391,-24.888,"Cascavel",0.00103203781733127,"Emission","< 1"
"938",-53.3879307644066,-27.1710788354214,"Vicente Dutra",0.00972991025529473,"Emission","< 1"
"939",-53.382291649367,-27.9400064011411,"Palmeira Das Missões",0.0282589016245041,"Emission","< 1"
"940",-53.382,-22.244,"Nova Andradina",-0.000139912484495761,"Removal","< 0"
"941",-53.3795547670981,-25.0277771182466,"Cascavel",-0.0270849219790658,"Removal","< 0"
"942",-53.3783076246754,-25.5908002340091,"Nova Prata Do Iguaçu",0.00950950230499211,"Emission","< 1"
"943",-53.377,-23.39,"Ivaté",-0.000181638001225014,"Removal","< 0"
"944",-53.369,-32.569,"Jaguarão",0.00062891045985246,"Emission","< 1"
"945",-53.3650216513273,-23.9230092687449,"Perobal",-0.000756105491048877,"Removal","< 0"
"946",-53.3639196533824,-24.6924270361512,"Cafelândia",0.00578525744294169,"Emission","< 1"
"947",-53.3629400481139,-23.0849499290602,"Santa Cruz De Monte Castelo",0.00827359529152241,"Emission","< 1"
"948",-53.3626373515101,-27.5010613520486,"Seberi",0.00439065792360932,"Emission","< 1"
"949",-53.359852499022,-27.3405159060668,"Frederico Westphalen",0.0133400032276436,"Emission","< 1"
"950",-53.3517523859007,-24.4385455364757,"Iracema Do Oeste",0.000850097772722492,"Emission","< 1"
"951",-53.35086722,-17.09699415,"Alto Araguaia",0.00192857871125727,"Emission","< 1"
"952",-53.34890887,-17.02233862,"Alto Araguaia",0.00109772871125727,"Emission","< 1"
"953",-53.3464021237834,-29.5605377016825,"Dona Francisca",0.00530942650073772,"Emission","< 1"
"954",-53.3452593253403,-26.0953803637536,"Manfrinópolis",-0.00597164141979367,"Removal","< 0"
"955",-53.3443519260503,-26.9784550610702,"Riqueza",0.00301137155535162,"Emission","< 1"
"956",-53.3439107347419,-29.8173597801786,"Restinga Seca",0.0107954116000171,"Emission","< 1"
"957",-53.3415202505401,-27.7016006993766,"Boa Vista Das Missões",0.00204650551221992,"Emission","< 1"
"958",-53.3373422967071,-26.7637808215628,"Flor Do Sertão",0.000190005120353728,"Emission","< 1"
"959",-53.3359376983687,-32.4100330642491,"Jaguarão",0.0557081370244851,"Emission","< 1"
"960",-53.335631843771,-29.2914595999484,"Pinhal Grande",-0.00624131860394506,"Removal","< 0"
"961",-53.3331086445015,-26.5329481865523,"Anchieta",-0.00680026636436683,"Removal","< 0"
"962",-53.332,-24.611,"Cafelândia",0.000411868518890669,"Emission","< 1"
"963",-53.331672648906,-24.2926449999243,"Formosa Do Oeste",0.00626628188332944,"Emission","< 1"
"964",-53.3244564845713,-26.8453171961213,"Iraceminha",0.000552458904389486,"Emission","< 1"
"965",-53.3171239767209,-26.6483895331109,"Romelândia",0.000250716591634667,"Emission","< 1"
"966",-53.3145292583634,-26.3735438267673,"Palma Sola",-0.000699693096726906,"Removal","< 0"
"967",-53.3138338214542,-22.8330966989962,"Porto Rico",0.00173999168245692,"Emission","< 1"
"968",-53.311,-24.787,"Corbélia",-4.13294586632432e-05,"Removal","< 0"
"969",-53.307885818259,1.09776223368137,"Laranjal Do Jari",0.194659409860844,"Emission","< 1"
"970",-53.2965734956841,-17.827206392476,"Alto Taquari",0.0023385041103397,"Emission","< 1"
"971",-53.2900464011409,-23.3475930465348,"Douradina",0.00614668960420367,"Emission","< 1"
"972",-53.287721,-29.447655,"Nova Palma",0.0301711055016573,"Emission","< 1"
"973",-53.2870604440234,-25.7753894061325,"Salto Do Lontra",0.00171469091433667,"Emission","< 1"
"974",-53.2864773473466,-26.2381516712059,"Flor Da Serra Do Sul",0.00143568473891356,"Emission","< 1"
"975",-53.2845539728961,-28.3738576549925,"Santa Bárbara Do Sul",0.0157771292337688,"Emission","< 1"
"976",-53.282,-24.541,"Nova Aurora",4.5930543127394e-05,"Emission","< 1"
"977",-53.277,-24.797,"Corbélia",-6.31444591109025e-05,"Removal","< 0"
"978",-53.2769814651162,-24.5027190926557,"Nova Aurora",0.0108298607122619,"Emission","< 1"
"979",-53.276,-22.772,"Porto Rico",-0.000223675160817805,"Removal","< 0"
"980",-53.2758839840693,-28.8951238272162,"Fortaleza Dos Valos",0.00814884862161824,"Emission","< 1"
"981",-53.272,-23.781,"Umuarama",0.00524676515778872,"Emission","< 1"
"982",-53.2641117751242,-27.6295460042916,"Jaboticaba",-0.00019478827746739,"Removal","< 0"
"983",-53.2630575793555,-27.0251755243054,"Caibi",0.000927366000859454,"Emission","< 1"
"984",-53.2584805673799,-15.0781024058292,"Novo São Joaquim",0.0477014451711853,"Emission","< 1"
"985",-53.2575970239896,-25.8984333145429,"Nova Esperança Do Sudoeste",-0.0053109384778287,"Removal","< 0"
"986",-53.2542187935983,-29.0682432276936,"Salto Do Jacuí",0.000587894117195977,"Emission","< 1"
"987",-53.251,-29.056,"Salto Do Jacuí",-5.08865064784083e-05,"Removal","< 0"
"988",-53.2485556794649,-27.4324212634096,"Cristal Do Sul",0.000799133014488972,"Emission","< 1"
"989",-53.2415571857662,-27.2493367675366,"Iraí",0.00835805350511064,"Emission","< 1"
"990",-53.2407162481244,-23.1144974555481,"Santa Isabel Do Ivaí",0.0030012668114832,"Emission","< 1"
"991",-53.2399617011167,-26.6896434905543,"São Miguel Da Boa Vista",-0.00241093785244775,"Removal","< 0"
"992",-53.2376753717873,-27.7797072064072,"São Pedro Das Missões",0.0004881810403464,"Emission","< 1"
"993",-53.2370445946493,-24.7425119592895,"Corbélia",0.00573416334930336,"Emission","< 1"
"994",-53.236458,-29.259051,"Pinhal Grande",0.00325702826165727,"Emission","< 1"
"995",-53.2350580358513,-27.5289562821828,"Pinhal",0.000565610380172278,"Emission","< 1"
"996",-53.2265812916944,-29.6080871956211,"Agudo",0.0187248882272266,"Emission","< 1"
"997",-53.2260900399002,-25.6401632163273,"Boa Esperança Do Iguaçu",0.00347732054641427,"Emission","< 1"
"998",-53.2248148895978,-25.4386935478157,"Três Barras Do Paraná",0.00186728268791141,"Emission","< 1"
"999",-53.2215047150739,-23.5823522496428,"Maria Helena",0.00805113594224102,"Emission","< 1"
"1000",-53.2106626731398,-24.0536575679437,"Mariluz",0.0106729320336296,"Emission","< 1"
"1001",-53.207,-22.994,"Santa Isabel Do Ivaí",8.96297979923876e-05,"Emission","< 1"
"1002",-53.2060290914855,-27.7032733986234,"Lajeado Do Bugre",-1.42223286604783e-05,"Removal","< 0"
"1003",-53.2031294785612,-18.5187917939835,"Costa Rica",0.0199479762958558,"Emission","< 1"
"1004",-53.1981128313952,-26.7599735766528,"Maravilha",-0.00259466882747196,"Removal","< 0"
"1005",-53.1949982414135,-3.16021316956311,"Medicilândia",0.20163690889362,"Emission","< 1"
"1006",-53.1926186876719,-27.3655924128466,"Ametista Do Sul",0.00320651629021825,"Emission","< 1"
"1007",-53.1906645930672,-26.8792275561365,"Cunha Porã",-0.000608166456136831,"Removal","< 0"
"1008",-53.188468,-29.014228,"Salto Do Jacuí",0.0801676017896573,"Emission","< 1"
"1009",-53.181264547733,-22.7849626442659,"São Pedro Do Paraná",0.00484093151276137,"Emission","< 1"
"1010",-53.1798290657806,-27.0926217357566,"Palmitos",0.00979247272569344,"Emission","< 1"
"1011",-53.1782805560345,-29.22402571986,"Estrela Velha",-0.00536878010296781,"Removal","< 0"
"1012",-53.1776015977304,-22.3908161256996,"Batayporã",0.0171323604293174,"Emission","< 1"
"1013",-53.1770036633677,-30.8170393658742,"Santana Da Boa Vista",-0.0191223346985086,"Removal","< 0"
"1014",-53.176,-25.428,"Três Barras Do Paraná",-0.000146456984630059,"Removal","< 0"
"1015",-53.1723348820045,-28.5949618017388,"Ibirubá",0.00509601480308671,"Emission","< 1"
"1016",-53.1706219071997,-27.4633934617648,"Rodeio Bonito",0.000838807799789256,"Emission","< 1"
"1017",-53.1699250459573,-26.5927486510529,"Santa Terezinha Do Progresso",-0.00693120564483666,"Removal","< 0"
"1018",-53.1671218124014,-27.5618137349007,"Novo Tiradentes",0.000345042440966227,"Emission","< 1"
"1019",-53.1661447078477,-29.4182602998067,"Ibarama",0.00401095813957639,"Emission","< 1"
"1020",-53.1630880130057,-27.6285496628723,"Cerro Grande",-0.000608284179594894,"Removal","< 0"
"1021",-53.157,-24.026,"Mariluz",4.44069557945415e-05,"Emission","< 1"
"1022",-53.1565465300077,-26.6760666227111,"Tigrinhos",-0.00223474550519483,"Removal","< 0"
"1023",-53.1556962012934,-25.2414167450479,"Catanduvas",-0.0127739957994126,"Removal","< 0"
"1024",-53.1553324833952,-24.3031439283836,"Quarto Centenário",-0.00100434124360616,"Removal","< 0"
"1025",-53.1537697178473,-25.9066457007866,"Enéas Marques",-0.00511966530274298,"Removal","< 0"
"1026",-53.1437618814723,-24.6440845713692,"Anahy",0.00390710570355825,"Emission","< 1"
"1027",-53.138,-22.951,"Loanda",0.00044414086875927,"Emission","< 1"
"1028",-53.137,-18.551,"Costa Rica",-0.000230462049845966,"Removal","< 0"
"1029",-53.1340853141212,-23.3291037132424,"Tapira",0.00856465971663166,"Emission","< 1"
"1030",-53.13258224325,-26.0476891435634,"Francisco Beltrão",-0.00911236407775303,"Removal","< 0"
"1031",-53.1319796316797,-27.7079319127463,"Sagrada Família",-0.000773479943439061,"Removal","< 0"
"1032",-53.1316981165898,-27.7948214973092,"São José Das Missões",0.000488455257405008,"Emission","< 1"
"1033",-53.1303352792535,-19.2281856346383,"Água Clara",0.0105574877371265,"Emission","< 1"
"1034",-53.1302902792012,-26.4504187758361,"Campo Erê",0.00257291371484634,"Emission","< 1"
"1035",-53.1297518912478,-25.5953923775246,"Cruzeiro Do Iguaçu",0.00354365983662119,"Emission","< 1"
"1036",-53.1283810094683,-14.3746080080162,"Campinápolis",-0.016058214017256,"Removal","< 0"
"1037",-53.1213097269121,-29.6962525263332,"Paraíso Do Sul",0.00854141770547599,"Emission","< 1"
"1038",-53.1212753845819,-16.7505153781052,"Araguainha",0.00276136785979493,"Emission","< 1"
"1039",-53.1168687941796,-28.756920896506,"Quinze De Novembro",0.00333535501177209,"Emission","< 1"
"1040",-53.1159861839769,-27.8995297478452,"Novo Barreiro",0.00150362758259729,"Emission","< 1"
"1041",-53.1150814955506,-28.0969082402181,"Chapada",0.0112677152323878,"Emission","< 1"
"1042",-53.1091964288679,-23.1543529168793,"Santa Mônica",0.0046336412498151,"Emission","< 1"
"1043",-53.1032481922628,-31.4387042849899,"Piratini",0.0263744194252573,"Emission","< 1"
"1044",-53.1008703368487,-26.9750867767446,"Cunhataí",0.00114770261865507,"Emission","< 1"
"1045",-53.0952882407243,-26.6840207548833,"Bom Jesus Do Oeste",-0.00149461714497916,"Removal","< 0"
"1046",-53.0944244099518,-28.3867878563935,"Saldanha Marinho",0.00328072167405763,"Emission","< 1"
"1047",-53.0930861358588,-26.2465397404418,"Marmeleiro",0.00154547497915311,"Emission","< 1"
"1048",-53.0904947342554,-24.8013466219067,"Braganey",0.00387202727487968,"Emission","< 1"
"1049",-53.086912325446,-24.687840326543,"Iguatu",0.00247407695075787,"Emission","< 1"
"1050",-53.0833566481946,-23.7587409911694,"Cruzeiro Do Oeste",0.0184472860677537,"Emission","< 1"
"1051",-53.0779553666095,-27.3356905600656,"Planalto",0.0029425010297379,"Emission","< 1"
"1052",-53.07747077,-13.73301598,"Água Boa",0.000377078711257273,"Emission","< 1"
"1053",-53.0753686007811,-25.7501624675012,"Dois Vizinhos",-0.00330437098072856,"Removal","< 0"
"1054",-53.0721668558022,-23.4267029426069,"Nova Olímpia",0.0040180745757743,"Emission","< 1"
"1055",-53.0712529683917,-22.9491320343477,"Loanda",0.00558821291656359,"Emission","< 1"
"1056",-53.07,-23.76,"Cruzeiro Do Oeste",0.000340675438064657,"Emission","< 1"
"1057",-53.0690119174236,-17.2445088634997,"Santa Rita Do Araguaia",-0.01296637159222,"Removal","< 0"
"1058",-53.064478655815,-22.7328145233885,"Marilena",0.00789880088366283,"Emission","< 1"
"1059",-53.0638745148106,-27.549524587705,"Liberato Salzano",0.00481420356859099,"Emission","< 1"
"1060",-53.0635230347473,-27.2172609714456,"Alpestre",0.0146244308003877,"Emission","< 1"
"1061",-53.0584829756926,-27.7442572123175,"Novo Xingu",-0.000844807391957082,"Removal","< 0"
"1062",-53.0577263072637,-28.9056140757978,"Campos Borges",0.00177641254188221,"Emission","< 1"
"1063",-53.057,-24.208,"Goioerê",0.000563119188661107,"Emission","< 1"
"1064",-53.0522639318045,-29.2588650437532,"Arroio Do Tigre",-0.0100702953110429,"Removal","< 0"
"1065",-53.0521846476074,-24.1726707412461,"Goioerê",0.0189099648237252,"Emission","< 1"
"1066",-53.0510962884609,-26.774777464599,"Modelo",-0.00238120960323332,"Removal","< 0"
"1067",-53.048,-26.068,"Francisco Beltrão",0.00301609479455346,"Emission","< 1"
"1068",-53.0463,-30.390024,"Cachoeira Do Sul",0.00224425141070637,"Emission","< 1"
"1069",-53.042,-25.749,"Dois Vizinhos",0.00109090369155511,"Emission","< 1"
"1070",-53.0418393080748,-29.5026595960182,"Lagoa Bonita Do Sul",9.39604706604197e-05,"Emission","< 1"
"1071",-53.0400144241951,-26.8972067891792,"Saudades",-0.000264526274486985,"Removal","< 0"
"1072",-53.036,-22.593,"Rosana",0.000690338730954282,"Emission","< 1"
"1073",-53.0314118358428,-27.0301092335344,"São Carlos",0.00524271707240794,"Emission","< 1"
"1074",-53.028,-25.527,"Quedas Do Iguaçu",-0.000216126478123218,"Removal","< 0"
"1075",-53.0262695766117,-29.4055365048391,"Sobradinho",0.000631039686272333,"Emission","< 1"
"1076",-53.0252384410049,-26.6926209204024,"Serra Alta",-0.00266372139375486,"Removal","< 0"
"1077",-53.0240412509759,-25.1520134946008,"Ibema",-0.00474279884082498,"Removal","< 0"
"1078",-53.0222784400944,-26.5905215205818,"Saltinho",-0.00788924909453045,"Removal","< 0"
"1079",-53.021666959999,-24.5049333806972,"Ubiratã",0.0228061366177258,"Emission","< 1"
"1080",-53.02,-26.149,"Marmeleiro",-2.79634425159472e-05,"Removal","< 0"
"1081",-53.0167036524088,-27.921694751794,"Barra Funda",0.000754909631486767,"Emission","< 1"
"1082",-53.0143283527002,-29.035098621488,"Jacuizinho",-0.00425677292130172,"Removal","< 0"
"1083",-53.013902244424,-24.9312406231107,"Campo Bonito",-0.00511776334944912,"Removal","< 0"
"1084",-53.009057,-25.534537,"Quedas Do Iguaçu",0.0184718096552573,"Emission","< 1"
"1085",-53.0060053607376,-33.162331741634,"Santa Vitória Do Palmar",0.0764540063153744,"Emission","< 1"
"1086",-53.0055714897654,-24.0244395447755,"Moreira Sales",0.0128581999264604,"Emission","< 1"
"1087",-52.9954903033169,-29.7601449776444,"Novo Cabrais",0.00145381030561585,"Emission","< 1"
"1088",-52.9954766201508,-29.6270589612104,"Cerro Branco",0.00485886565258939,"Emission","< 1"
"1089",-52.993,-24.514,"Ubiratã",0.000160615116909374,"Emission","< 1"
"1090",-52.9913530974452,-28.4724439114,"Colorado",0.00389570152080954,"Emission","< 1"
"1091",-52.99030751961,-27.6892652126767,"Constantina",0.00111422851604563,"Emission","< 1"
"1092",-52.988924805127,-28.8043198184101,"Alto Alegre",0.0008437233866419,"Emission","< 1"
"1093",-52.9876112944807,-26.4876953040302,"São Bernardino",-0.00669462173506458,"Removal","< 0"
"1094",-52.9864521411545,-30.206205164197,"Cachoeira Do Sul",0.0131171404361579,"Emission","< 1"
"1095",-52.9795183359184,-27.9968190083179,"Nova Boa Vista",0.000340269277202763,"Emission","< 1"
"1096",-52.9794713665826,-32.7541499523663,NA,-0.00158859843244939,"Removal","< 0"
"1097",-52.9786274833689,-28.6686112464024,"Selbach",0.00247066742267019,"Emission","< 1"
"1098",-52.9766320704843,-26.8293734814432,"Pinhalzinho",-0.000914897944754642,"Removal","< 0"
"1099",-52.973,-22.751,"Nova Londrina",0.000179313688721654,"Emission","< 1"
"1100",-52.965,-26.155,"Renascença",-6.57761099585567e-05,"Removal","< 0"
"1101",-52.9608237806329,-24.2904886477485,"Rancho Alegre D'oeste",0.00957058326429555,"Emission","< 1"
"1102",-52.958685,-22.471582,"Batayporã",2.12245333034112,"Emission","< 5"
"1103",-52.9584859610843,-23.3828315792779,"Cidade Gaúcha",0.0175863782070916,"Emission","< 1"
"1104",-52.9583811805803,-25.8750895987699,"Verê",-0.00565141588437639,"Removal","< 0"
"1105",-52.9567352792386,-27.054386024553,"Águas De Chapecó",0.00236168597253665,"Emission","< 1"
"1106",-52.9549989353141,-25.4574146280759,"Quedas Do Iguaçu",-0.0376792028396384,"Removal","< 0"
"1107",-52.9547712790779,-22.7868855621013,"Nova Londrina",0.00550569531353003,"Emission","< 1"
"1108",-52.9508845841736,-26.2251421418675,"Renascença",0.000158123750657964,"Emission","< 1"
"1109",-52.95,-23.368,"Cidade Gaúcha",0.00020528392734982,"Emission","< 1"
"1110",-52.9468004335961,-26.6953418093098,"Sul Brasil",-0.00287661145377677,"Removal","< 0"
"1111",-52.9400541709916,-25.6558982373564,"São Jorge D'oeste",0.00659971448058981,"Emission","< 1"
"1112",-52.9365748513311,-16.6589499846534,"Ponte Branca",0.00457051336788402,"Emission","< 1"
"1113",-52.9345207679985,-23.0916563285591,"Planaltina Do Paraná",0.00294273427625248,"Emission","< 1"
"1114",-52.9294293113939,-29.3124866021489,"Segredo",-0.00316531314295563,"Removal","< 0"
"1115",-52.9266921992408,-19.9628222593252,"Água Clara",-0.140532239581978,"Removal","< 0"
"1116",-52.920210769659,-27.1467112037536,"Caxambu Do Sul",0.00092027255319729,"Emission","< 1"
"1117",-52.9198569711035,-32.1884163230987,"Arroio Grande",0.040519380500897,"Emission","< 1"
"1118",-52.9149157046709,-27.4456873503266,"Gramado Dos Loureiros",0.00122622891837902,"Emission","< 1"
"1119",-52.914,-25.463,"Quedas Do Iguaçu",0.000506607949406218,"Emission","< 1"
"1120",-52.9087284511614,-27.6847725508712,"Engenho Velho",-0.00136968761881829,"Removal","< 0"
"1121",-52.9076417820621,-28.1299565845013,"Almirante Tamandaré Do Sul",0.00144710623121947,"Emission","< 1"
"1122",-52.9066927884652,-26.9081685590405,"Nova Erechim",0.000958402203144548,"Emission","< 1"
"1123",-52.899024749617,-27.5277402235979,"Trindade Do Sul",0.00187938848031465,"Emission","< 1"
"1124",-52.8984621477728,-22.7287210741778,"Itaúna Do Sul",0.00217158395816081,"Emission","< 1"
"1125",-52.896302213325,-27.9413288114454,"Sarandi",0.00363784507673904,"Emission","< 1"
"1126",-52.8930772985432,-27.8324751973558,"Rondinha",0.000220672650336228,"Emission","< 1"
"1127",-52.8928284546012,-22.6350438139445,"Diamante Do Norte",0.00318010323922159,"Emission","< 1"
"1128",-52.8927907008031,-29.1140875120296,"Tunas",-0.000465279527281823,"Removal","< 0"
"1129",-52.8902945391902,-23.6584577105892,"Tapejara",0.0250769653475981,"Emission","< 1"
"1130",-52.8900991052877,-26.6275922841444,"Irati",-0.00317316875138857,"Removal","< 0"
"1131",-52.8899289923489,-16.2947313202044,"Torixoréu",0.0130122615774616,"Emission","< 1"
"1132",-52.884,-25.107,"Guaraniaçu",-3.18416648177534e-05,"Removal","< 0"
"1133",-52.879738228051,-27.2528384340837,"Rio Dos Índios",0.0055444356383304,"Emission","< 1"
"1134",-52.874,-30.052,"Cachoeira Do Sul",-4.31993158444712e-05,"Removal","< 0"
"1135",-52.8725022125989,-31.9597303796754,"Pedro Osório",0.0105027442987091,"Emission","< 1"
"1136",-52.8713060211167,-26.7171951902596,"Jardinópolis",-0.000606909432268072,"Removal","< 0"
"1137",-52.8699015037954,-29.4392097912514,"Passa Sete",0.00446172971106407,"Emission","< 1"
"1138",-52.8689831760908,-27.0519640450748,"Planalto Alegre",0.000624432156227539,"Emission","< 1"
"1139",-52.868501,-22.60225,"Diamante Do Norte",0.354589266943791,"Emission","< 1"
"1140",-52.866,-23.884,"Tuneiras Do Oeste",-0.00016951855653187,"Removal","< 0"
"1141",-52.8636088428671,-28.2778710243705,"Carazinho",0.0105432662370268,"Emission","< 1"
"1142",-52.8632658667121,-25.055098064383,"Guaraniaçu",-0.016331294540956,"Removal","< 0"
"1143",-52.8615683461025,-28.6613766028118,"Tapera",0.00228437949956769,"Emission","< 1"
"1144",-52.8597728640749,-26.4654882215859,"Novo Horizonte",-0.00178464596080765,"Removal","< 0"
"1145",-52.859,-23.723,"Tapejara",0.000607718745131877,"Emission","< 1"
"1146",-52.857250729647,-27.3695015784776,"Nonoai",0.00426959989860264,"Emission","< 1"
"1147",-52.8560099051319,-26.786666327453,"União Do Oeste",0.0012900687492929,"Emission","< 1"
"1148",-52.853,-21.298,"Santa Rita Do Pardo",-0.000240503875448856,"Removal","< 0"
